[
  {
    "ID": "BH286",
    "NAME": "McManus House",
    "OTHER_NAME": "",
    "ADDRESS": "4435 Donnelly Drive",
    "ADDRESS_FR": "4435, prom Donnelly",
    "CITY": "Ottawa",
    "PROVINCE": "ON",
    "DESIGNATION": "Local",
    "DESIGNATION_SPECIFIC": "PartIV",
    "LAT": 44.98335792,
    "LONG": -75.79998553,
    "PC": "K0G 1J0",
    "TYPE": "Residential",
    "DATE_MOD": 20180123
  },
  {
    "ID": "BH285",
    "NAME": "Burritt House",
    "OTHER_NAME": "",
    "ADDRESS": "4390 Donnelly Drive",
    "ADDRESS_FR": "4390, prom Donnelly",
    "CITY": "Ottawa",
    "PROVINCE": "ON",
    "DESIGNATION": "Local",
    "DESIGNATION_SPECIFIC": "PartIV",
    "LAT": 44.98340643,
    "LONG": -75.79506355,
    "PC": "K0G 1J0",
    "TYPE": "Residential",
    "DATE_MOD": 20180123
  },
  {
    "ID": "BH284",
    "NAME": "Fry House",
    "OTHER_NAME": "",
    "ADDRESS": "4148 Donnelly Drive",
    "ADDRESS_FR": "4148, prom Donnelly",
    "CITY": "Ottawa",
    "PROVINCE": "ON",
    "DESIGNATION": "Local",
    "DESIGNATION_SPECIFIC": "PartIV",
    "LAT": 44.99010747,
    "LONG": -75.77226263,
    "PC": "K0G 1J0",
    "TYPE": "Residential",
    "DATE_MOD": 20180123
  },
  {
    "ID": "BH289",
    "NAME": "Gilroy Farm",
    "OTHER_NAME": "",
    "ADDRESS": "7406 Gilroy Road",
    "ADDRESS_FR": "7406, chemin Gilroy",
    "CITY": "Ottawa",
    "PROVINCE": "ON",
    "DESIGNATION": "Local",
    "DESIGNATION_SPECIFIC": "PartIV",
    "LAT": 44.99139884,
    "LONG": -75.8356661,
    "PC": "K7A 4S6",
    "TYPE": "Agricultural",
    "DATE_MOD": 20180123
  },
  {
    "ID": "BH283",
    "NAME": "Dibb House",
    "OTHER_NAME": "",
    "ADDRESS": "3150 Donnelly Drive",
    "ADDRESS_FR": "3150, prom Donnelly",
    "CITY": "Ottawa",
    "PROVINCE": "ON",
    "DESIGNATION": "Local",
    "DESIGNATION_SPECIFIC": "PartIV",
    "LAT": 45.03907126,
    "LONG": -75.70569098,
    "PC": "K0G 1J0",
    "TYPE": "Residential",
    "DATE_MOD": 20180123
  },
  {
    "ID": "BH408",
    "NAME": "Dwyer Hill Roman Catholic Burial Ground",
    "OTHER_NAME": "",
    "ADDRESS": "O'Neill Rd.",
    "ADDRESS_FR": "chemin O'Neill",
    "CITY": "Ottawa",
    "PROVINCE": "ON",
    "DESIGNATION": "Local",
    "DESIGNATION_SPECIFIC": "PartIV",
    "LAT": 45.05112,
    "LONG": -75.53484,
    "PC": "",
    "TYPE": "Other",
    "DATE_MOD": 20180123
  },
  {
    "ID": "BH271",
    "NAME": "Weatherhead House",
    "OTHER_NAME": "",
    "ADDRESS": "6924 Gallagher Road",
    "ADDRESS_FR": "6924, chemin Gallagher",
    "CITY": "Ottawa",
    "PROVINCE": "ON",
    "DESIGNATION": "Local",
    "DESIGNATION_SPECIFIC": "PartIV",
    "LAT": 45.08243554,
    "LONG": -75.75758404,
    "PC": "K0A 2T0",
    "TYPE": "Residential",
    "DATE_MOD": 20180123
  },
  {
    "ID": "BH273",
    "NAME": "Marlborough Township Hall",
    "OTHER_NAME": "",
    "ADDRESS": "3048 Pierce Road",
    "ADDRESS_FR": "3048, chemin Pierce",
    "CITY": "Ottawa",
    "PROVINCE": "ON",
    "DESIGNATION": "Local",
    "DESIGNATION_SPECIFIC": "PartIV",
    "LAT": 45.09132144,
    "LONG": -75.75715193,
    "PC": "K0A 2T0",
    "TYPE": "Institutional",
    "DATE_MOD": 20180123
  },
  {
    "ID": "BH272",
    "NAME": "O'Connor House",
    "OTHER_NAME": "",
    "ADDRESS": "2944 Pierce Road",
    "ADDRESS_FR": "2944, chemin Pierce",
    "CITY": "Ottawa",
    "PROVINCE": "ON",
    "DESIGNATION": "Local",
    "DESIGNATION_SPECIFIC": "PartIV",
    "LAT": 45.09442611,
    "LONG": -75.74784493,
    "PC": "K0A 2T0",
    "TYPE": "Residential",
    "DATE_MOD": 20180123
  },
  {
    "ID": "BH242",
    "NAME": "St. Clare's Catholic Church",
    "OTHER_NAME": "",
    "ADDRESS": "4009 Dwyer Hill Road",
    "ADDRESS_FR": "4009, chemin Dwyer Hill",
    "CITY": "Ottawa",
    "PROVINCE": "ON",
    "DESIGNATION": "Local",
    "DESIGNATION_SPECIFIC": "PartIV",
    "LAT": 45.10716733,
    "LONG": -75.92142794,
    "PC": "K0A 1B0",
    "TYPE": "Institutional",
    "DATE_MOD": 20180123
  },
  {
    "ID": "BH412",
    "NAME": "Hackett House",
    "OTHER_NAME": "",
    "ADDRESS": "2659 Roger Stevens Dr.",
    "ADDRESS_FR": "2659, prom Roger Stevens",
    "CITY": "Ottawa",
    "PROVINCE": "ON",
    "DESIGNATION": "Local",
    "DESIGNATION_SPECIFIC": "PartIV",
    "LAT": 45.12208691,
    "LONG": -75.74477221,
    "PC": "K0A 2T0",
    "TYPE": "Residential",
    "DATE_MOD": 20180123
  },
  {
    "ID": "BH275",
    "NAME": "Engel House",
    "OTHER_NAME": "",
    "ADDRESS": "2306 Relin Way",
    "ADDRESS_FR": "2306, voie Relin",
    "CITY": "Ottawa",
    "PROVINCE": "ON",
    "DESIGNATION": "Local",
    "DESIGNATION_SPECIFIC": "PartIV",
    "LAT": 45.12738352,
    "LONG": -75.70922809,
    "PC": "K0A 2T0",
    "TYPE": "Residential",
    "DATE_MOD": 20180123
  },
  {
    "ID": "BH270",
    "NAME": "Maguire House",
    "OTHER_NAME": "",
    "ADDRESS": "6607 Fourth Line Road",
    "ADDRESS_FR": "6607, chemin Fourth Line",
    "CITY": "Ottawa",
    "PROVINCE": "ON",
    "DESIGNATION": "Local",
    "DESIGNATION_SPECIFIC": "PartIV",
    "LAT": 45.13144995,
    "LONG": -75.7157322,
    "PC": "K0A 2T0",
    "TYPE": "Residential",
    "DATE_MOD": 20180123
  },
  {
    "ID": "BH276",
    "NAME": "Railer/Steel House",
    "OTHER_NAME": "",
    "ADDRESS": "2323 Roger Stevens Drive",
    "ADDRESS_FR": "2323, prom Roger Stevens",
    "CITY": "Ottawa",
    "PROVINCE": "ON",
    "DESIGNATION": "Local",
    "DESIGNATION_SPECIFIC": "PartIV",
    "LAT": 45.13187196,
    "LONG": -75.71577627,
    "PC": "K0A 2T0",
    "TYPE": "Residential",
    "DATE_MOD": 20180123
  },
  {
    "ID": "BH268",
    "NAME": "Harrison House",
    "OTHER_NAME": "",
    "ADDRESS": "6576 Fourth Line Road",
    "ADDRESS_FR": "6576, chemin Fourth Line",
    "CITY": "Ottawa",
    "PROVINCE": "ON",
    "DESIGNATION": "Local",
    "DESIGNATION_SPECIFIC": "PartIV",
    "LAT": 45.13271281,
    "LONG": -75.71832003,
    "PC": "K0A 2T0",
    "TYPE": "Residential",
    "DATE_MOD": 20180123
  },
  {
    "ID": "BH269",
    "NAME": "North Gower Old Town Hall",
    "OTHER_NAME": "",
    "ADDRESS": "6581 Fourth Line Road",
    "ADDRESS_FR": "6581, chemin Fourth Line",
    "CITY": "Ottawa",
    "PROVINCE": "ON",
    "DESIGNATION": "Local",
    "DESIGNATION_SPECIFIC": "PartIV",
    "LAT": 45.13284031,
    "LONG": -75.71737603,
    "PC": "K0A 2T0",
    "TYPE": "Institutional",
    "DATE_MOD": 20180123
  },
  {
    "ID": "BH274",
    "NAME": "Cinnamon House",
    "OTHER_NAME": "",
    "ADDRESS": "6564 Prince of Wales Drive",
    "ADDRESS_FR": "6564, prom Prince of Wales",
    "CITY": "Ottawa",
    "PROVINCE": "ON",
    "DESIGNATION": "Local",
    "DESIGNATION_SPECIFIC": "PartIV",
    "LAT": 45.13468606,
    "LONG": -75.71620878,
    "PC": "K0A 2T0",
    "TYPE": "Residential",
    "DATE_MOD": 20180123
  },
  {
    "ID": "BH258",
    "NAME": "Lindsay House",
    "OTHER_NAME": "",
    "ADDRESS": "6836 RIDEAU VALLEY DRIVE",
    "ADDRESS_FR": "6836, prom Rideau Valley",
    "CITY": "Ottawa",
    "PROVINCE": "ON",
    "DESIGNATION": "Local",
    "DESIGNATION_SPECIFIC": "PartIV",
    "LAT": 45.14235727,
    "LONG": -75.64603219,
    "PC": "K0A 2E0",
    "TYPE": "Residential",
    "DATE_MOD": 20180123
  },
  {
    "ID": "BH259",
    "NAME": "Thunderwood Farm",
    "OTHER_NAME": "",
    "ADDRESS": "6713 SECOND LINE ROAD",
    "ADDRESS_FR": "6713, chemin Second Line",
    "CITY": "Ottawa",
    "PROVINCE": "ON",
    "DESIGNATION": "Local",
    "DESIGNATION_SPECIFIC": "PartIV",
    "LAT": 45.14463376,
    "LONG": -75.66154693,
    "PC": "K0A 2E0",
    "TYPE": "Agricultural",
    "DATE_MOD": 20180123
  },
  {
    "ID": "BH279",
    "NAME": "William F. Scott Farmhouse",
    "OTHER_NAME": "",
    "ADDRESS": "7668 Franktown Road",
    "ADDRESS_FR": "7668, chemin Franktown",
    "CITY": "Ottawa",
    "PROVINCE": "ON",
    "DESIGNATION": "Local",
    "DESIGNATION_SPECIFIC": "PartIV",
    "LAT": 45.14578987,
    "LONG": -75.90872291,
    "PC": "K0A 2Z0",
    "TYPE": "Agricultural",
    "DATE_MOD": 20180123
  },
  {
    "ID": "BH267",
    "NAME": "Presley House",
    "OTHER_NAME": "",
    "ADDRESS": "6295 Fourth Line Road",
    "ADDRESS_FR": "6295, chemin Fourth Line",
    "CITY": "Ottawa",
    "PROVINCE": "ON",
    "DESIGNATION": "Local",
    "DESIGNATION_SPECIFIC": "PartIV",
    "LAT": 45.14886824,
    "LONG": -75.7312255,
    "PC": "K0A 2T0",
    "TYPE": "Residential",
    "DATE_MOD": 20180123
  },
  {
    "ID": "BH257",
    "NAME": "Davy House",
    "OTHER_NAME": "",
    "ADDRESS": "6722 RIDEAU VALLEY DRIVE",
    "ADDRESS_FR": "6722, prom Rideau Valley",
    "CITY": "Ottawa",
    "PROVINCE": "ON",
    "DESIGNATION": "Local",
    "DESIGNATION_SPECIFIC": "PartIV",
    "LAT": 45.14997729,
    "LONG": -75.64753281,
    "PC": "K0A 2E0",
    "TYPE": "Residential",
    "DATE_MOD": 20180123
  },
  {
    "ID": "BH261",
    "NAME": "Minor House",
    "OTHER_NAME": "",
    "ADDRESS": "6732 Waterloo Street",
    "ADDRESS_FR": "6732, rue Waterloo",
    "CITY": "Ottawa",
    "PROVINCE": "ON",
    "DESIGNATION": "Local",
    "DESIGNATION_SPECIFIC": "PartIV",
    "LAT": 45.15000687,
    "LONG": -75.64560915,
    "PC": "K0A 2E0",
    "TYPE": "Residential",
    "DATE_MOD": 20180123
  },
  {
    "ID": "BH253",
    "NAME": "Thomson House",
    "OTHER_NAME": "",
    "ADDRESS": "6727 Lord Nelson Street",
    "ADDRESS_FR": "6727, rue Lord Nelson",
    "CITY": "Ottawa",
    "PROVINCE": "ON",
    "DESIGNATION": "Local",
    "DESIGNATION_SPECIFIC": "PartIV",
    "LAT": 45.15022901,
    "LONG": -75.64609481,
    "PC": "K0A 2E0",
    "TYPE": "Residential",
    "DATE_MOD": 20180123
  },
  {
    "ID": "BH260",
    "NAME": "St. Loius House",
    "OTHER_NAME": "",
    "ADDRESS": "1579 Washington Street",
    "ADDRESS_FR": "1579, rue Washington",
    "CITY": "Ottawa",
    "PROVINCE": "ON",
    "DESIGNATION": "Local",
    "DESIGNATION_SPECIFIC": "PartIV",
    "LAT": 45.15063221,
    "LONG": -75.64667893,
    "PC": "K0A 2E0",
    "TYPE": "Residential",
    "DATE_MOD": 20180123
  },
  {
    "ID": "BH256",
    "NAME": "Bryan House",
    "OTHER_NAME": "",
    "ADDRESS": "6700 RIDEAU VALLEY DRIVE",
    "ADDRESS_FR": "6700, prom Rideau Valley",
    "CITY": "Ottawa",
    "PROVINCE": "ON",
    "DESIGNATION": "Local",
    "DESIGNATION_SPECIFIC": "PartIV",
    "LAT": 45.1515124,
    "LONG": -75.64812858,
    "PC": "K0A 2E0",
    "TYPE": "Residential",
    "DATE_MOD": 20180123
  },
  {
    "ID": "BH255",
    "NAME": "Kars Loyal Orange Lodge No. 35",
    "OTHER_NAME": "",
    "ADDRESS": "6691 RIDEAU VALLEY DRIVE",
    "ADDRESS_FR": "6691, prom Rideau Valley",
    "CITY": "Ottawa",
    "PROVINCE": "ON",
    "DESIGNATION": "Local",
    "DESIGNATION_SPECIFIC": "PartIV",
    "LAT": 45.15221417,
    "LONG": -75.64781483,
    "PC": "K0A 2E0",
    "TYPE": "Institutional",
    "DATE_MOD": 20180123
  },
  {
    "ID": "BH254",
    "NAME": "Trinity United Church, Kars",
    "OTHER_NAME": "",
    "ADDRESS": "6656 RIDEAU VALLEY DRIVE",
    "ADDRESS_FR": "6656, prom Rideau Valley",
    "CITY": "Ottawa",
    "PROVINCE": "ON",
    "DESIGNATION": "Local",
    "DESIGNATION_SPECIFIC": "PartIV",
    "LAT": 45.1545474,
    "LONG": -75.6492156,
    "PC": "K0A 2E0",
    "TYPE": "Institutional",
    "DATE_MOD": 20180123
  },
  {
    "ID": "BH243",
    "NAME": "Ashton General Store",
    "OTHER_NAME": "",
    "ADDRESS": "8981 FLEWELLYN Road",
    "ADDRESS_FR": "8981, chemin Flewellyn",
    "CITY": "Ottawa",
    "PROVINCE": "ON",
    "DESIGNATION": "Local",
    "DESIGNATION_SPECIFIC": "PartIV",
    "LAT": 45.15703548,
    "LONG": -76.03272215,
    "PC": "K0A 1B0",
    "TYPE": "Commercial",
    "DATE_MOD": 20180123
  },
  {
    "ID": "BH278",
    "NAME": "Reilly Blacksmith Shop",
    "OTHER_NAME": "",
    "ADDRESS": "7347 Franktown Road",
    "ADDRESS_FR": "7347, chemin Franktown",
    "CITY": "Ottawa",
    "PROVINCE": "ON",
    "DESIGNATION": "Local",
    "DESIGNATION_SPECIFIC": "PartIV",
    "LAT": 45.15799875,
    "LONG": -75.89655571,
    "PC": "K0A 2Z0",
    "TYPE": "Industrial",
    "DATE_MOD": 20180123
  },
  {
    "ID": "BH244",
    "NAME": "Old Anglican Christ Church",
    "OTHER_NAME": "8930 Flewellyn Road",
    "ADDRESS": "8938 Flewellyn Road",
    "ADDRESS_FR": "8938, chemin Flewellyn",
    "CITY": "Ottawa",
    "PROVINCE": "ON",
    "DESIGNATION": "Local",
    "DESIGNATION_SPECIFIC": "PartIV",
    "LAT": 45.1579994,
    "LONG": -76.03024329,
    "PC": "K0A 1B0",
    "TYPE": "Institutional",
    "DATE_MOD": 20180123
  },
  {
    "ID": "BH282",
    "NAME": "Hobbs House",
    "OTHER_NAME": "",
    "ADDRESS": "7809 Bleeks Road",
    "ADDRESS_FR": "7809, chemin Bleeks",
    "CITY": "Ottawa",
    "PROVINCE": "ON",
    "DESIGNATION": "Local",
    "DESIGNATION_SPECIFIC": "PartIV",
    "LAT": 45.16370669,
    "LONG": -75.94256414,
    "PC": "K0A 3P0",
    "TYPE": "Residential",
    "DATE_MOD": 20180123
  },
  {
    "ID": "BH407",
    "NAME": "Rutherford House",
    "OTHER_NAME": "4515 9th Line Rd.",
    "ADDRESS": "4515 Ninth Line Rd.",
    "ADDRESS_FR": "4515, chemin Ninth Line",
    "CITY": "Ottawa",
    "PROVINCE": "ON",
    "DESIGNATION": "Local",
    "DESIGNATION_SPECIFIC": "PartIV",
    "LAT": 45.1680188,
    "LONG": -75.4011287,
    "PC": "K0C 2K0",
    "TYPE": "Residential",
    "DATE_MOD": 20180123
  },
  {
    "ID": "BH288",
    "NAME": "Manotick United Church",
    "OTHER_NAME": "",
    "ADDRESS": "5567 Manotick Main Street",
    "ADDRESS_FR": "5567, rue Manotick Main",
    "CITY": "Ottawa",
    "PROVINCE": "ON",
    "DESIGNATION": "Local",
    "DESIGNATION_SPECIFIC": "PartIV",
    "LAT": 45.22408157,
    "LONG": -75.68201257,
    "PC": "K4M 1E2",
    "TYPE": "Institutional",
    "DATE_MOD": 20180123
  },
  {
    "ID": "BH315",
    "NAME": "The Pretty Old Furniture and Antique Shop",
    "OTHER_NAME": "",
    "ADDRESS": "5562 Manotick Main Street",
    "ADDRESS_FR": "5562, rue Manotick Main",
    "CITY": "Ottawa",
    "PROVINCE": "ON",
    "DESIGNATION": "Local",
    "DESIGNATION_SPECIFIC": "PartIV",
    "LAT": 45.22412228,
    "LONG": -75.68292581,
    "PC": "",
    "TYPE": "Residential",
    "DATE_MOD": 20180123
  },
  {
    "ID": "BH314",
    "NAME": "McFadden House",
    "OTHER_NAME": "",
    "ADDRESS": "5561 Manotick Main Street",
    "ADDRESS_FR": "5561, rue Manotick Main",
    "CITY": "Ottawa",
    "PROVINCE": "ON",
    "DESIGNATION": "Local",
    "DESIGNATION_SPECIFIC": "PartIV",
    "LAT": 45.22435466,
    "LONG": -75.68245539,
    "PC": "",
    "TYPE": "Residential",
    "DATE_MOD": 20180123
  },
  {
    "ID": "BH313",
    "NAME": "5559 Manotick Main Street",
    "OTHER_NAME": "",
    "ADDRESS": "5559 Manotick Main Street",
    "ADDRESS_FR": "5559, rue Manotick Main",
    "CITY": "Ottawa",
    "PROVINCE": "ON",
    "DESIGNATION": "Local",
    "DESIGNATION_SPECIFIC": "PartIV",
    "LAT": 45.22448271,
    "LONG": -75.6825947,
    "PC": "",
    "TYPE": "Residential",
    "DATE_MOD": 20180123
  },
  {
    "ID": "BH320",
    "NAME": "1134 O'Grady Street",
    "OTHER_NAME": "",
    "ADDRESS": "1134 O'Grady Street",
    "ADDRESS_FR": "1134, rue O'Grady",
    "CITY": "Ottawa",
    "PROVINCE": "ON",
    "DESIGNATION": "Local",
    "DESIGNATION_SPECIFIC": "PartIV",
    "LAT": 45.22494979,
    "LONG": -75.68246345,
    "PC": "",
    "TYPE": "Residential",
    "DATE_MOD": 20180123
  },
  {
    "ID": "BH322",
    "NAME": "Lincez House",
    "OTHER_NAME": "",
    "ADDRESS": "1130 O'Grady Street",
    "ADDRESS_FR": "1130, rue O'Grady",
    "CITY": "Ottawa",
    "PROVINCE": "ON",
    "DESIGNATION": "Local",
    "DESIGNATION_SPECIFIC": "PartIV",
    "LAT": 45.22503683,
    "LONG": -75.68223898,
    "PC": "",
    "TYPE": "Residential",
    "DATE_MOD": 20180123
  },
  {
    "ID": "BH312",
    "NAME": "The Canada Goose Shop",
    "OTHER_NAME": "",
    "ADDRESS": "5538 Manotick Main Street",
    "ADDRESS_FR": "5538, rue Manotick Main",
    "CITY": "Ottawa",
    "PROVINCE": "ON",
    "DESIGNATION": "Local",
    "DESIGNATION_SPECIFIC": "PartIV",
    "LAT": 45.22530597,
    "LONG": -75.6848019,
    "PC": "",
    "TYPE": "Commercial",
    "DATE_MOD": 20180123
  },
  {
    "ID": "BH321",
    "NAME": "Caiger House",
    "OTHER_NAME": "",
    "ADDRESS": "1126 O'Grady Street",
    "ADDRESS_FR": "1126, rue O'Grady",
    "CITY": "Ottawa",
    "PROVINCE": "ON",
    "DESIGNATION": "Local",
    "DESIGNATION_SPECIFIC": "PartIV",
    "LAT": 45.22533376,
    "LONG": -75.68160637,
    "PC": "",
    "TYPE": "Residential",
    "DATE_MOD": 20180123
  },
  {
    "ID": "BH319",
    "NAME": "Miller's Oven",
    "OTHER_NAME": "",
    "ADDRESS": "1137 Mill Street",
    "ADDRESS_FR": "1137, rue Mill",
    "CITY": "Ottawa",
    "PROVINCE": "ON",
    "DESIGNATION": "Local",
    "DESIGNATION_SPECIFIC": "PartIV",
    "LAT": 45.22615922,
    "LONG": -75.68422179,
    "PC": "",
    "TYPE": "Commercial",
    "DATE_MOD": 20180123
  },
  {
    "ID": "BH317",
    "NAME": "Ayers Building",
    "OTHER_NAME": "",
    "ADDRESS": "1128 Mill Street",
    "ADDRESS_FR": "1128, rue Mill",
    "CITY": "Ottawa",
    "PROVINCE": "ON",
    "DESIGNATION": "Local",
    "DESIGNATION_SPECIFIC": "PartIV",
    "LAT": 45.22621477,
    "LONG": -75.68321927,
    "PC": "",
    "TYPE": "Commercial",
    "DATE_MOD": 20180123
  },
  {
    "ID": "BH318",
    "NAME": "Weaver's House",
    "OTHER_NAME": "",
    "ADDRESS": "1131 Mill Street",
    "ADDRESS_FR": "1131, rue Mill",
    "CITY": "Ottawa",
    "PROVINCE": "ON",
    "DESIGNATION": "Local",
    "DESIGNATION_SPECIFIC": "PartIV",
    "LAT": 45.22656563,
    "LONG": -75.68359282,
    "PC": "",
    "TYPE": "Residential",
    "DATE_MOD": 20180123
  },
  {
    "ID": "BH287",
    "NAME": "Watson's Mill & Dickinson Square",
    "OTHER_NAME": "",
    "ADDRESS": "5525 Mill Street",
    "ADDRESS_FR": "5525, rue Mill",
    "CITY": "Ottawa",
    "PROVINCE": "ON",
    "DESIGNATION": "Local",
    "DESIGNATION_SPECIFIC": "PartIV",
    "LAT": 45.22698113,
    "LONG": -75.68284746,
    "PC": "K4M 1A2",
    "TYPE": "Industrial",
    "DATE_MOD": 20180123
  },
  {
    "ID": "BH265",
    "NAME": "Former Carkner Lumber Mill",
    "OTHER_NAME": "",
    "ADDRESS": "9047 CARKNER Street",
    "ADDRESS_FR": "9047, rue Carkner",
    "CITY": "Ottawa",
    "PROVINCE": "ON",
    "DESIGNATION": "Local",
    "DESIGNATION_SPECIFIC": "PartIV",
    "LAT": 45.22855746,
    "LONG": -75.41326149,
    "PC": "K0A 2P0",
    "TYPE": "Industrial",
    "DATE_MOD": 20180123
  },
  {
    "ID": "BH266",
    "NAME": "Former Osgoode Township Hall",
    "OTHER_NAME": "",
    "ADDRESS": "8243 Victoria Street",
    "ADDRESS_FR": "8243, rue Victoria",
    "CITY": "Ottawa",
    "PROVINCE": "ON",
    "DESIGNATION": "Local",
    "DESIGNATION_SPECIFIC": "PartIV",
    "LAT": 45.23660813,
    "LONG": -75.4717695,
    "PC": "K0A 2P0",
    "TYPE": "Institutional",
    "DATE_MOD": 20180123
  },
  {
    "ID": "BH416",
    "NAME": "Hurdman Bridge",
    "OTHER_NAME": "",
    "ADDRESS": "Highway 417",
    "ADDRESS_FR": "Autoroute 417",
    "CITY": "Ottawa",
    "PROVINCE": "ON",
    "DESIGNATION": "Provincial",
    "DESIGNATION_SPECIFIC": "PHP",
    "LAT": 45.251,
    "LONG": -75.3946,
    "PC": "",
    "TYPE": "Other",
    "DATE_MOD": 20180123
  },
  {
    "ID": "BH209",
    "NAME": "Denis Bergin House",
    "OTHER_NAME": "",
    "ADDRESS": "3697 Jockvale Road",
    "ADDRESS_FR": "3697, chemin Jockvale",
    "CITY": "Ottawa",
    "PROVINCE": "ON",
    "DESIGNATION": "Local",
    "DESIGNATION_SPECIFIC": "PartIV",
    "LAT": 45.25136227,
    "LONG": -75.72062919,
    "PC": "K2C 3H2",
    "TYPE": "Residential",
    "DATE_MOD": 20180123
  },
  {
    "ID": "BH302",
    "NAME": "S. S. # 14",
    "OTHER_NAME": "",
    "ADDRESS": "5906 Fernbank Road",
    "ADDRESS_FR": "5906, chemin Fernbank",
    "CITY": "Ottawa",
    "PROVINCE": "ON",
    "DESIGNATION": "Local",
    "DESIGNATION_SPECIFIC": "PartIV",
    "LAT": 45.25697392,
    "LONG": -75.8967838,
    "PC": "K2S 1B6",
    "TYPE": "Institutional",
    "DATE_MOD": 20180123
  },
  {
    "ID": "BH291",
    "NAME": "Edward Monaghan House",
    "OTHER_NAME": "",
    "ADDRESS": "5100 Fallowfield Road",
    "ADDRESS_FR": "5100, chemin Fallowfield",
    "CITY": "Ottawa",
    "PROVINCE": "ON",
    "DESIGNATION": "Local",
    "DESIGNATION_SPECIFIC": "PartIV",
    "LAT": 45.25760783,
    "LONG": -75.82937153,
    "PC": "K2R 1E8",
    "TYPE": "Residential",
    "DATE_MOD": 20180123
  },
  {
    "ID": "BH414",
    "NAME": "Green's Hotel",
    "OTHER_NAME": "",
    "ADDRESS": "1510 Stittsville Main St.",
    "ADDRESS_FR": "1510, rue Stittsville Main",
    "CITY": "Ottawa",
    "PROVINCE": "ON",
    "DESIGNATION": "Local",
    "DESIGNATION_SPECIFIC": "PartIV",
    "LAT": 45.2582892,
    "LONG": -75.9209205,
    "PC": "K2S 1N9",
    "TYPE": "Institutional",
    "DATE_MOD": 20180123
  },
  {
    "ID": "BH299",
    "NAME": "Fallowfield United Church",
    "OTHER_NAME": "",
    "ADDRESS": "119 Steeple Hill Crescent",
    "ADDRESS_FR": "119, crois Steeple Hill",
    "CITY": "Ottawa",
    "PROVINCE": "ON",
    "DESIGNATION": "Local",
    "DESIGNATION_SPECIFIC": "PartIV",
    "LAT": 45.2642887,
    "LONG": -75.8170381,
    "PC": "K2R 1G1",
    "TYPE": "Institutional",
    "DATE_MOD": 20180123
  },
  {
    "ID": "BH300",
    "NAME": "James Smith House",
    "OTHER_NAME": "",
    "ADDRESS": "72 Steeple Hill Crescent",
    "ADDRESS_FR": "72, crois Steeple Hill",
    "CITY": "Ottawa",
    "PROVINCE": "ON",
    "DESIGNATION": "Local",
    "DESIGNATION_SPECIFIC": "PartIV",
    "LAT": 45.26466879,
    "LONG": -75.82128586,
    "PC": "K2R 1G2",
    "TYPE": "Residential",
    "DATE_MOD": 20180123
  },
  {
    "ID": "BH298",
    "NAME": "St. Patrick's Church and Presbytery",
    "OTHER_NAME": "",
    "ADDRESS": "15 Steeple Hill Crescent",
    "ADDRESS_FR": "15, crois Steeple Hill",
    "CITY": "Ottawa",
    "PROVINCE": "ON",
    "DESIGNATION": "Local",
    "DESIGNATION_SPECIFIC": "PartIV",
    "LAT": 45.2680283,
    "LONG": -75.82798477,
    "PC": "K2R 1C8",
    "TYPE": "Institutional",
    "DATE_MOD": 20180123
  },
  {
    "ID": "BH301",
    "NAME": "Wallace/Tierney Farmhouse",
    "OTHER_NAME": "",
    "ADDRESS": "5519 Richmond Road",
    "ADDRESS_FR": "5519, chemin Richmond",
    "CITY": "Ottawa",
    "PROVINCE": "ON",
    "DESIGNATION": "Local",
    "DESIGNATION_SPECIFIC": "PartIV",
    "LAT": 45.2682957,
    "LONG": -75.83080284,
    "PC": "K2R 1G4",
    "TYPE": "Agricultural",
    "DATE_MOD": 20180123
  },
  {
    "ID": "BH294",
    "NAME": "Jockvale Schoolhouse",
    "OTHER_NAME": "",
    "ADDRESS": "3131 Jockvale Road",
    "ADDRESS_FR": "3131, chemin Jockvale",
    "CITY": "Ottawa",
    "PROVINCE": "ON",
    "DESIGNATION": "Local",
    "DESIGNATION_SPECIFIC": "PartIV",
    "LAT": 45.26923136,
    "LONG": -75.75058774,
    "PC": "K2J 4K1",
    "TYPE": "Institutional",
    "DATE_MOD": 20180123
  },
  {
    "ID": "BH182",
    "NAME": "Captain Stephen Collins House",
    "OTHER_NAME": "",
    "ADDRESS": "3436 Prince of Wales Drive",
    "ADDRESS_FR": "3436, prom Prince of Wales",
    "CITY": "Ottawa",
    "PROVINCE": "ON",
    "DESIGNATION": "Local",
    "DESIGNATION_SPECIFIC": "PartIV",
    "LAT": 45.27187577,
    "LONG": -75.70532531,
    "PC": "K2G 6X2",
    "TYPE": "Residential",
    "DATE_MOD": 20180123
  },
  {
    "ID": "BH290",
    "NAME": "Patrick Waters House",
    "OTHER_NAME": "",
    "ADDRESS": "20 Stone House Court",
    "ADDRESS_FR": "20, court Stone House",
    "CITY": "Ottawa",
    "PROVINCE": "ON",
    "DESIGNATION": "Local",
    "DESIGNATION_SPECIFIC": "PartIV",
    "LAT": 45.27358597,
    "LONG": -75.75879799,
    "PC": "K2J 3Y4",
    "TYPE": "Residential",
    "DATE_MOD": 20180123
  },
  {
    "ID": "BH303",
    "NAME": "Kemp's Tavern",
    "OTHER_NAME": "Chequers Restaurant",
    "ADDRESS": "5816 HAZELDEAN Road",
    "ADDRESS_FR": "5816, chemin Hazeldean",
    "CITY": "Ottawa",
    "PROVINCE": "ON",
    "DESIGNATION": "Local",
    "DESIGNATION_SPECIFIC": "PartIV",
    "LAT": 45.27983911,
    "LONG": -75.9164032,
    "PC": "K2S 1B9",
    "TYPE": "Commercial",
    "DATE_MOD": 20180123
  },
  {
    "ID": "BH304",
    "NAME": "Bradley/Craig Farmstead",
    "OTHER_NAME": "",
    "ADDRESS": "590 Hazeldean Road",
    "ADDRESS_FR": "590, chemin Hazeldean",
    "CITY": "Ottawa",
    "PROVINCE": "ON",
    "DESIGNATION": "Local",
    "DESIGNATION_SPECIFIC": "PartIV",
    "LAT": 45.28768653,
    "LONG": -75.90409309,
    "PC": "K2S 1B9",
    "TYPE": "Agricultural",
    "DATE_MOD": 20180123
  },
  {
    "ID": "BH249",
    "NAME": "Mulligan's School 1883",
    "OTHER_NAME": "Cheshire Cat Pub",
    "ADDRESS": "2193 RICHARDSON SIDE ROAD",
    "ADDRESS_FR": "2193, chemin Richardson Side",
    "CITY": "Ottawa",
    "PROVINCE": "ON",
    "DESIGNATION": "Local",
    "DESIGNATION_SPECIFIC": "PartIV",
    "LAT": 45.29356344,
    "LONG": -75.97181763,
    "PC": "K0A 1L0",
    "TYPE": "Institutional",
    "DATE_MOD": 20180123
  },
  {
    "ID": "BH293",
    "NAME": "James Long House",
    "OTHER_NAME": "",
    "ADDRESS": "28 Long Gate Court",
    "ADDRESS_FR": "28, court Long Gate",
    "CITY": "Ottawa",
    "PROVINCE": "ON",
    "DESIGNATION": "Local",
    "DESIGNATION_SPECIFIC": "PartIV",
    "LAT": 45.29434273,
    "LONG": -75.73556417,
    "PC": "K2J 4E9",
    "TYPE": "Residential",
    "DATE_MOD": 20180123
  },
  {
    "ID": "BH296",
    "NAME": "Grierson Residence",
    "OTHER_NAME": "",
    "ADDRESS": "486 Hazeldean Road",
    "ADDRESS_FR": "486, chemin Hazeldean",
    "CITY": "Ottawa",
    "PROVINCE": "ON",
    "DESIGNATION": "Local",
    "DESIGNATION_SPECIFIC": "PartIV",
    "LAT": 45.29626858,
    "LONG": -75.89088672,
    "PC": "K2L 1V4",
    "TYPE": "Residential",
    "DATE_MOD": 20180123
  },
  {
    "ID": "BH297",
    "NAME": "Bradley Homestead",
    "OTHER_NAME": "",
    "ADDRESS": "4 Bradley Farm Court",
    "ADDRESS_FR": "4, court Bradley Farm",
    "CITY": "Ottawa",
    "PROVINCE": "ON",
    "DESIGNATION": "Local",
    "DESIGNATION_SPECIFIC": "PartIV",
    "LAT": 45.29869272,
    "LONG": -75.88395479,
    "PC": "K2L 4B5",
    "TYPE": "Residential",
    "DATE_MOD": 20180123
  },
  {
    "ID": "BH410",
    "NAME": "Richardson Farm House",
    "OTHER_NAME": "",
    "ADDRESS": "1665 Richardson Side Rd.",
    "ADDRESS_FR": "1665, chemin Richardson Side",
    "CITY": "Ottawa",
    "PROVINCE": "ON",
    "DESIGNATION": "Local",
    "DESIGNATION_SPECIFIC": "PartIV",
    "LAT": 45.3124388,
    "LONG": -75.9461016,
    "PC": "K2T 1C5",
    "TYPE": "Residential",
    "DATE_MOD": 20180123
  },
  {
    "ID": "BH305",
    "NAME": "S.S.#1 Schoolhouse",
    "OTHER_NAME": "",
    "ADDRESS": "400 Goldridge Drive",
    "ADDRESS_FR": "400, prom Goldridge",
    "CITY": "Ottawa",
    "PROVINCE": "ON",
    "DESIGNATION": "Local",
    "DESIGNATION_SPECIFIC": "PartIV",
    "LAT": 45.31753972,
    "LONG": -75.92174244,
    "PC": "K2T 1A8",
    "TYPE": "Institutional",
    "DATE_MOD": 20180123
  },
  {
    "ID": "BH292",
    "NAME": "Bells Corners Union Cemetery",
    "OTHER_NAME": "",
    "ADDRESS": "3851 Richmond Road",
    "ADDRESS_FR": "3851, chemin Richmond",
    "CITY": "Ottawa",
    "PROVINCE": "ON",
    "DESIGNATION": "Local",
    "DESIGNATION_SPECIFIC": "PartIV",
    "LAT": 45.32261627,
    "LONG": -75.82653277,
    "PC": "K2H 5C1",
    "TYPE": "Other",
    "DATE_MOD": 20180123
  },
  {
    "ID": "BH248",
    "NAME": "William Gourlay Estate",
    "OTHER_NAME": "Oakleigh",
    "ADDRESS": "1038 Oak Creek Road",
    "ADDRESS_FR": "1038, chemin Oak Creek",
    "CITY": "Ottawa",
    "PROVINCE": "ON",
    "DESIGNATION": "Local",
    "DESIGNATION_SPECIFIC": "PartIV",
    "LAT": 45.32339835,
    "LONG": -75.97736405,
    "PC": "K0A 1L0",
    "TYPE": "Residential",
    "DATE_MOD": 20180123
  },
  {
    "ID": "BH180",
    "NAME": "Merivale Schoolhouse #13",
    "OTHER_NAME": "",
    "ADDRESS": "51 Slack Road",
    "ADDRESS_FR": "51, chemin Slack",
    "CITY": "Ottawa",
    "PROVINCE": "ON",
    "DESIGNATION": "Local",
    "DESIGNATION_SPECIFIC": "PartIV",
    "LAT": 45.32468972,
    "LONG": -75.72307608,
    "PC": "K2G 0E2",
    "TYPE": "Institutional",
    "DATE_MOD": 20180123
  },
  {
    "ID": "BH316",
    "NAME": "St. John's Anglican Church Cemetery",
    "OTHER_NAME": "",
    "ADDRESS": "1890 MERIVALE  ROAD",
    "ADDRESS_FR": "1890, chemin Merivale",
    "CITY": "Ottawa",
    "PROVINCE": "ON",
    "DESIGNATION": "Local",
    "DESIGNATION_SPECIFIC": "PartIV",
    "LAT": 45.33110839,
    "LONG": -75.72391642,
    "PC": "",
    "TYPE": "Institutional",
    "DATE_MOD": 20180123
  },
  {
    "ID": "BH181",
    "NAME": "Merivale United Church",
    "OTHER_NAME": "",
    "ADDRESS": "1876 MERIVALE  ROAD",
    "ADDRESS_FR": "1876, chemin Merivale",
    "CITY": "Ottawa",
    "PROVINCE": "ON",
    "DESIGNATION": "Local",
    "DESIGNATION_SPECIFIC": "PartIV",
    "LAT": 45.33283413,
    "LONG": -75.72328019,
    "PC": "K2G 1E6",
    "TYPE": "Institutional",
    "DATE_MOD": 20180123
  },
  {
    "ID": "BH247",
    "NAME": "Former Presbyterian Manse",
    "OTHER_NAME": "",
    "ADDRESS": "108 Falldown Lane",
    "ADDRESS_FR": "108, rle Falldown",
    "CITY": "Ottawa",
    "PROVINCE": "ON",
    "DESIGNATION": "Local",
    "DESIGNATION_SPECIFIC": "PartIV",
    "LAT": 45.34599692,
    "LONG": -76.03901176,
    "PC": "K0A 1L0",
    "TYPE": "Institutional",
    "DATE_MOD": 20180123
  },
  {
    "ID": "BH246",
    "NAME": "Carp Argricultural Hall",
    "OTHER_NAME": "",
    "ADDRESS": "3790 Carp Road",
    "ADDRESS_FR": "3790, chemin Carp",
    "CITY": "Ottawa",
    "PROVINCE": "ON",
    "DESIGNATION": "Local",
    "DESIGNATION_SPECIFIC": "PartIV",
    "LAT": 45.34663418,
    "LONG": -76.03770027,
    "PC": "K0A 1L0",
    "TYPE": "Agricultural",
    "DATE_MOD": 20180123
  },
  {
    "ID": "BH207",
    "NAME": "Fairfields",
    "OTHER_NAME": "",
    "ADDRESS": "3080 Richmond Road",
    "ADDRESS_FR": "3080, chemin Richmond",
    "CITY": "Ottawa",
    "PROVINCE": "ON",
    "DESIGNATION": "Local",
    "DESIGNATION_SPECIFIC": "PartIV",
    "LAT": 45.34884392,
    "LONG": -75.80193751,
    "PC": "K2B 7J5",
    "TYPE": "Residential",
    "DATE_MOD": 20180123
  },
  {
    "ID": "BH245",
    "NAME": "Central Emergency Government Headquarters",
    "OTHER_NAME": "Diefenbunker",
    "ADDRESS": "3911/ 3929 Carp Road",
    "ADDRESS_FR": "3911/3929, chemin Carp",
    "CITY": "Ottawa",
    "PROVINCE": "ON",
    "DESIGNATION": "Local,National",
    "DESIGNATION_SPECIFIC": "PartIV,NHS",
    "LAT": 45.3516863,
    "LONG": -76.0447268,
    "PC": "K0A 1L0",
    "TYPE": "Institutional",
    "DATE_MOD": 20180123
  },
  {
    "ID": "BH205",
    "NAME": "Mosgrove School",
    "OTHER_NAME": "",
    "ADDRESS": "2976 Richmond Road",
    "ADDRESS_FR": "2976, chemin Richmond",
    "CITY": "Ottawa",
    "PROVINCE": "ON",
    "DESIGNATION": "Local",
    "DESIGNATION_SPECIFIC": "PartIV",
    "LAT": 45.35236372,
    "LONG": -75.79888469,
    "PC": "K2B 6S7",
    "TYPE": "Institutional",
    "DATE_MOD": 20180123
  },
  {
    "ID": "BH295",
    "NAME": "St. John's Anglican Church",
    "OTHER_NAME": "329 Sandhill Road",
    "ADDRESS": "325 SANDHILL RD",
    "ADDRESS_FR": "325, chemin Sandhill",
    "CITY": "Ottawa",
    "PROVINCE": "ON",
    "DESIGNATION": "Local",
    "DESIGNATION_SPECIFIC": "PartIV",
    "LAT": 45.35479839,
    "LONG": -75.92704661,
    "PC": "K2K 2V7",
    "TYPE": "Institutional",
    "DATE_MOD": 20180123
  },
  {
    "ID": "BH306",
    "NAME": "Former March House Restaurant",
    "OTHER_NAME": "",
    "ADDRESS": "806 March Road",
    "ADDRESS_FR": "806, chemin March",
    "CITY": "Ottawa",
    "PROVINCE": "ON",
    "DESIGNATION": "Local",
    "DESIGNATION_SPECIFIC": "PartIV",
    "LAT": 45.35563773,
    "LONG": -75.93232877,
    "PC": "K2W 0A5",
    "TYPE": "Residential",
    "DATE_MOD": 20180123
  },
  {
    "ID": "BH307",
    "NAME": "Old Town Hall",
    "OTHER_NAME": "",
    "ADDRESS": "821 March Road",
    "ADDRESS_FR": "821, chemin March",
    "CITY": "Ottawa",
    "PROVINCE": "ON",
    "DESIGNATION": "Local",
    "DESIGNATION_SPECIFIC": "PartIV",
    "LAT": 45.35563822,
    "LONG": -75.93354287,
    "PC": "K2W 0A5",
    "TYPE": "Institutional",
    "DATE_MOD": 20180123
  },
  {
    "ID": "BH411",
    "NAME": "Grant School",
    "OTHER_NAME": "",
    "ADDRESS": "2720 Richmond Rd.",
    "ADDRESS_FR": "2720, chemin Richmond",
    "CITY": "Ottawa",
    "PROVINCE": "ON",
    "DESIGNATION": "Local",
    "DESIGNATION_SPECIFIC": "PartIV",
    "LAT": 45.3600365,
    "LONG": -75.7925906,
    "PC": "K2B 6S2",
    "TYPE": "Institutional",
    "DATE_MOD": 20180123
  },
  {
    "ID": "BH206",
    "NAME": "The Olde Forge",
    "OTHER_NAME": "",
    "ADDRESS": "2730 Carling Avenue",
    "ADDRESS_FR": "2730, av Carling",
    "CITY": "Ottawa",
    "PROVINCE": "ON",
    "DESIGNATION": "Local",
    "DESIGNATION_SPECIFIC": "PartIV",
    "LAT": 45.3600375,
    "LONG": -75.79324159,
    "PC": "K2B 7J1",
    "TYPE": "Residential",
    "DATE_MOD": 20180123
  },
  {
    "ID": "BH208",
    "NAME": "295 Greenview Avenue",
    "OTHER_NAME": "",
    "ADDRESS": "295 Greenview Avenue",
    "ADDRESS_FR": "295, av Greenview",
    "CITY": "Ottawa",
    "PROVINCE": "ON",
    "DESIGNATION": "Local",
    "DESIGNATION_SPECIFIC": "PartIV",
    "LAT": 45.36419529,
    "LONG": -75.79730862,
    "PC": "K2B 8J8",
    "TYPE": "Residential",
    "DATE_MOD": 20180123
  },
  {
    "ID": "BH177",
    "NAME": "Ramsayville School S.S. #13",
    "OTHER_NAME": "",
    "ADDRESS": "3455 Ramsayville Road",
    "ADDRESS_FR": "3455, chemin Ramsayville",
    "CITY": "Ottawa",
    "PROVINCE": "ON",
    "DESIGNATION": "Local",
    "DESIGNATION_SPECIFIC": "PartIV",
    "LAT": 45.36779589,
    "LONG": -75.56499964,
    "PC": "K1G 3N2",
    "TYPE": "Institutional",
    "DATE_MOD": 20180123
  },
  {
    "ID": "BH201",
    "NAME": "Old St. Stephen's Church",
    "OTHER_NAME": "",
    "ADDRESS": "181 Britannia Road",
    "ADDRESS_FR": "181, chemin Britannia",
    "CITY": "Ottawa",
    "PROVINCE": "ON",
    "DESIGNATION": "Local",
    "DESIGNATION_SPECIFIC": "PartIV",
    "LAT": 45.36814887,
    "LONG": -75.79798472,
    "PC": "K2B 5X1",
    "TYPE": "Institutional",
    "DATE_MOD": 20180123
  },
  {
    "ID": "BH184",
    "NAME": "175 Britannia Road",
    "OTHER_NAME": "",
    "ADDRESS": "175 Britannia Road",
    "ADDRESS_FR": "175, chemin Britannia",
    "CITY": "Ottawa",
    "PROVINCE": "ON",
    "DESIGNATION": "Local",
    "DESIGNATION_SPECIFIC": "PartIV",
    "LAT": 45.36830755,
    "LONG": -75.79808089,
    "PC": "K2B 5X1",
    "TYPE": "Residential",
    "DATE_MOD": 20180123
  },
  {
    "ID": "BH200",
    "NAME": "154 Britannia Road",
    "OTHER_NAME": "",
    "ADDRESS": "154 Britannia Road",
    "ADDRESS_FR": "154, chemin Britannia",
    "CITY": "Ottawa",
    "PROVINCE": "ON",
    "DESIGNATION": "Local",
    "DESIGNATION_SPECIFIC": "PartIV",
    "LAT": 45.36876312,
    "LONG": -75.79901969,
    "PC": "K2B 5W9",
    "TYPE": "Residential",
    "DATE_MOD": 20180123
  },
  {
    "ID": "BH202",
    "NAME": "127 Britannia Road",
    "OTHER_NAME": "",
    "ADDRESS": "127 Britannia Road",
    "ADDRESS_FR": "127, chemin Britannia",
    "CITY": "Ottawa",
    "PROVINCE": "ON",
    "DESIGNATION": "Local",
    "DESIGNATION_SPECIFIC": "PartIV",
    "LAT": 45.36977098,
    "LONG": -75.79910626,
    "PC": "K2B 5X1",
    "TYPE": "Residential",
    "DATE_MOD": 20180123
  },
  {
    "ID": "BH204",
    "NAME": "Arbour House",
    "OTHER_NAME": "",
    "ADDRESS": "84 Bradford Street",
    "ADDRESS_FR": "84, rue Bradford",
    "CITY": "Ottawa",
    "PROVINCE": "ON",
    "DESIGNATION": "Local",
    "DESIGNATION_SPECIFIC": "PartIV",
    "LAT": 45.37068544,
    "LONG": -75.80116778,
    "PC": "K2B 5Y8",
    "TYPE": "Residential",
    "DATE_MOD": 20180123
  },
  {
    "ID": "BH203",
    "NAME": "66 Bradford Street",
    "OTHER_NAME": "",
    "ADDRESS": "66 Bradford Street",
    "ADDRESS_FR": "66, rue Bradfrod",
    "CITY": "Ottawa",
    "PROVINCE": "ON",
    "DESIGNATION": "Local",
    "DESIGNATION_SPECIFIC": "PartIV",
    "LAT": 45.37134131,
    "LONG": -75.80161693,
    "PC": "K2B 5Y8",
    "TYPE": "Residential",
    "DATE_MOD": 20180123
  },
  {
    "ID": "BH199",
    "NAME": "48 Britannia Road",
    "OTHER_NAME": "",
    "ADDRESS": "48 Britannia Road",
    "ADDRESS_FR": "48, chemin Britannia",
    "CITY": "Ottawa",
    "PROVINCE": "ON",
    "DESIGNATION": "Local",
    "DESIGNATION_SPECIFIC": "PartIV",
    "LAT": 45.37176869,
    "LONG": -75.80082703,
    "PC": "K2B 5W5",
    "TYPE": "Residential",
    "DATE_MOD": 20180123
  },
  {
    "ID": "BH262",
    "NAME": "Braclyn Bradford Home",
    "OTHER_NAME": "",
    "ADDRESS": "3229 Diamondview Road",
    "ADDRESS_FR": "3229, chemin Diamondview",
    "CITY": "Ottawa",
    "PROVINCE": "ON",
    "DESIGNATION": "Local",
    "DESIGNATION_SPECIFIC": "PartIV",
    "LAT": 45.38422078,
    "LONG": -76.13268541,
    "PC": "K0A 2H0",
    "TYPE": "Residential",
    "DATE_MOD": 20180123
  },
  {
    "ID": "BH198",
    "NAME": "Bingham-McKellar House",
    "OTHER_NAME": "",
    "ADDRESS": "635 Richmond Road",
    "ADDRESS_FR": "635, chemin Richmond",
    "CITY": "Ottawa",
    "PROVINCE": "ON",
    "DESIGNATION": "Local",
    "DESIGNATION_SPECIFIC": "PartIV",
    "LAT": 45.38563155,
    "LONG": -75.76615304,
    "PC": "K2A 0G6",
    "TYPE": "Residential",
    "DATE_MOD": 20180123
  },
  {
    "ID": "BH263",
    "NAME": "Diamond Methodist Church",
    "OTHER_NAME": "",
    "ADDRESS": "3303 Diamondview Road",
    "ADDRESS_FR": "3303, chemin Diamondview",
    "CITY": "Ottawa",
    "PROVINCE": "ON",
    "DESIGNATION": "Local",
    "DESIGNATION_SPECIFIC": "PartIV",
    "LAT": 45.38735494,
    "LONG": -76.13638464,
    "PC": "K0A 2H0",
    "TYPE": "Institutional",
    "DATE_MOD": 20180123
  },
  {
    "ID": "BH197",
    "NAME": "Maplelawn",
    "OTHER_NAME": "",
    "ADDRESS": "529 Richmond Road",
    "ADDRESS_FR": "529, chemin Richmond",
    "CITY": "Ottawa",
    "PROVINCE": "ON",
    "DESIGNATION": "Local,National",
    "DESIGNATION_SPECIFIC": "PartIV,NHS",
    "LAT": 45.3880199,
    "LONG": -75.7616951,
    "PC": "K2A 0G3",
    "TYPE": "Residential",
    "DATE_MOD": 20180123
  },
  {
    "ID": "BH11",
    "NAME": "Central Experimental Farm",
    "OTHER_NAME": "",
    "ADDRESS": "960 Carling Ave",
    "ADDRESS_FR": "960, av Carling",
    "CITY": "Ottawa",
    "PROVINCE": "ON",
    "DESIGNATION": "National",
    "DESIGNATION_SPECIFIC": "NHS",
    "LAT": 45.38857,
    "LONG": -75.71692,
    "PC": "K1A 0C6",
    "TYPE": "Agricultural",
    "DATE_MOD": 20180123
  },
  {
    "ID": "BH12",
    "NAME": "Booth Barn Complex",
    "OTHER_NAME": "",
    "ADDRESS": "930 Carling Avenue",
    "ADDRESS_FR": "930, av Carling",
    "CITY": "Ottawa",
    "PROVINCE": "ON",
    "DESIGNATION": "Local",
    "DESIGNATION_SPECIFIC": "PartIV",
    "LAT": 45.38858667,
    "LONG": -75.71029456,
    "PC": "K1A 0C7",
    "TYPE": "Agricultural",
    "DATE_MOD": 20180123
  },
  {
    "ID": "BH237",
    "NAME": "Andrew Wilson House",
    "OTHER_NAME": "Hayes House",
    "ADDRESS": "4971 Dunning Road",
    "ADDRESS_FR": "4971, chemin Dunning",
    "CITY": "Ottawa",
    "PROVINCE": "ON",
    "DESIGNATION": "Local",
    "DESIGNATION_SPECIFIC": "PartIV",
    "LAT": 45.38937861,
    "LONG": -75.33350843,
    "PC": "K4B 1J1",
    "TYPE": "Residential",
    "DATE_MOD": 20180123
  },
  {
    "ID": "BH178",
    "NAME": "Billing House",
    "OTHER_NAME": "Park Hill",
    "ADDRESS": "2100 Cabot Street",
    "ADDRESS_FR": "2100, rue Cabot",
    "CITY": "Ottawa",
    "PROVINCE": "ON",
    "DESIGNATION": "Local,National",
    "DESIGNATION_SPECIFIC": "PartIV,NHS",
    "LAT": 45.3902566,
    "LONG": -75.6715527,
    "PC": "K1H 6K1",
    "TYPE": "Residential",
    "DATE_MOD": 20180123
  },
  {
    "ID": "BH52",
    "NAME": "Hunt House",
    "OTHER_NAME": "",
    "ADDRESS": "149 Hopewell Avenue",
    "ADDRESS_FR": "149, av Hopewell",
    "CITY": "Ottawa",
    "PROVINCE": "ON",
    "DESIGNATION": "Local",
    "DESIGNATION_SPECIFIC": "PartIV",
    "LAT": 45.39117944,
    "LONG": -75.68944694,
    "PC": "K1S 2Z2",
    "TYPE": "Residential",
    "DATE_MOD": 20180123
  },
  {
    "ID": "BH45",
    "NAME": "Robertson House",
    "OTHER_NAME": "",
    "ADDRESS": "32 Cameron Avenue",
    "ADDRESS_FR": "32, av Cameron",
    "CITY": "Ottawa",
    "PROVINCE": "ON",
    "DESIGNATION": "Local",
    "DESIGNATION_SPECIFIC": "PartIV",
    "LAT": 45.39144483,
    "LONG": -75.67983719,
    "PC": "K1S 0W7",
    "TYPE": "Residential",
    "DATE_MOD": 20180123
  },
  {
    "ID": "BH179",
    "NAME": "Laws House",
    "OTHER_NAME": "",
    "ADDRESS": "2087 Riverside Drive",
    "ADDRESS_FR": "2087, prom Riverside",
    "CITY": "Ottawa",
    "PROVINCE": "ON",
    "DESIGNATION": "Local",
    "DESIGNATION_SPECIFIC": "PartIV",
    "LAT": 45.39192945,
    "LONG": -75.6729895,
    "PC": "K1H 7X2",
    "TYPE": "Residential",
    "DATE_MOD": 20180123
  },
  {
    "ID": "BH195",
    "NAME": "Chapel of All Saints' Anglican Church,  Westboro",
    "OTHER_NAME": "",
    "ADDRESS": "347 Richmond Road",
    "ADDRESS_FR": "347, chemin Richmond",
    "CITY": "Ottawa",
    "PROVINCE": "ON",
    "DESIGNATION": "Local",
    "DESIGNATION_SPECIFIC": "PartIV",
    "LAT": 45.39211461,
    "LONG": -75.75484664,
    "PC": "K2A 0E7",
    "TYPE": "Institutional",
    "DATE_MOD": 20180123
  },
  {
    "ID": "BH196",
    "NAME": "Nepean Town Hall",
    "OTHER_NAME": "",
    "ADDRESS": "345 Richmond Road",
    "ADDRESS_FR": "345, chemin Richmond",
    "CITY": "Ottawa",
    "PROVINCE": "ON",
    "DESIGNATION": "Local",
    "DESIGNATION_SPECIFIC": "PartIV",
    "LAT": 45.39213051,
    "LONG": -75.75436378,
    "PC": "K2A 0E8",
    "TYPE": "Institutional",
    "DATE_MOD": 20180123
  },
  {
    "ID": "BH176",
    "NAME": "339 Pleasant Park Road",
    "OTHER_NAME": "",
    "ADDRESS": "339 Pleasant Park Road",
    "ADDRESS_FR": "339, chemin Pleasant Park",
    "CITY": "Ottawa",
    "PROVINCE": "ON",
    "DESIGNATION": "Local",
    "DESIGNATION_SPECIFIC": "PartIV",
    "LAT": 45.39357218,
    "LONG": -75.65858039,
    "PC": "K1H 5M7",
    "TYPE": "Residential",
    "DATE_MOD": 20180123
  },
  {
    "ID": "BH402",
    "NAME": "Charles Billings House",
    "OTHER_NAME": "",
    "ADDRESS": "187 Billings Ave.",
    "ADDRESS_FR": "187, av Billings",
    "CITY": "Ottawa",
    "PROVINCE": "ON",
    "DESIGNATION": "Local",
    "DESIGNATION_SPECIFIC": "PartIV",
    "LAT": 45.3942104,
    "LONG": -75.6651734,
    "PC": "K1H 5K9",
    "TYPE": "Residential",
    "DATE_MOD": 20180123
  },
  {
    "ID": "BH2",
    "NAME": "Ottawa South Community Centre",
    "OTHER_NAME": "",
    "ADDRESS": "260 Sunnyside Avenue",
    "ADDRESS_FR": "260, av Sunnyside",
    "CITY": "Ottawa",
    "PROVINCE": "ON",
    "DESIGNATION": "Local",
    "DESIGNATION_SPECIFIC": "PartIV",
    "LAT": 45.39467291,
    "LONG": -75.68180967,
    "PC": "K1S 0R7",
    "TYPE": "Institutional",
    "DATE_MOD": 20180123
  },
  {
    "ID": "BH264",
    "NAME": "Savery Home",
    "OTHER_NAME": "",
    "ADDRESS": "3856 Loggers Way",
    "ADDRESS_FR": "3856, voie Loggers",
    "CITY": "Ottawa",
    "PROVINCE": "ON",
    "DESIGNATION": "Local",
    "DESIGNATION_SPECIFIC": "PartIV",
    "LAT": 45.39497786,
    "LONG": -76.19020521,
    "PC": "K0A 2H0",
    "TYPE": "Residential",
    "DATE_MOD": 20180123
  },
  {
    "ID": "BH193",
    "NAME": "Aylen-Heney Cottage",
    "OTHER_NAME": "",
    "ADDRESS": "150 Richmond Road",
    "ADDRESS_FR": "150, chemin Richmond",
    "CITY": "Ottawa",
    "PROVINCE": "ON",
    "DESIGNATION": "Local",
    "DESIGNATION_SPECIFIC": "PartIV",
    "LAT": 45.39528404,
    "LONG": -75.74610327,
    "PC": "K1Z 6W2",
    "TYPE": "Residential",
    "DATE_MOD": 20180123
  },
  {
    "ID": "BH57",
    "NAME": "Monast�re du Pr�cieux-Sang",
    "OTHER_NAME": "",
    "ADDRESS": "774 Echo Drive",
    "ADDRESS_FR": "774, prom Echo",
    "CITY": "Ottawa",
    "PROVINCE": "ON",
    "DESIGNATION": "Local",
    "DESIGNATION_SPECIFIC": "PartIV",
    "LAT": 45.39552104,
    "LONG": -75.68238278,
    "PC": "K1S 5N8",
    "TYPE": "Institutional",
    "DATE_MOD": 20180123
  },
  {
    "ID": "BH194",
    "NAME": "S�urs de la Visitation",
    "OTHER_NAME": "",
    "ADDRESS": "114 Richmond Road",
    "ADDRESS_FR": "114, chemin Richmond",
    "CITY": "Ottawa",
    "PROVINCE": "ON",
    "DESIGNATION": "Local",
    "DESIGNATION_SPECIFIC": "PartIV",
    "LAT": 45.396389,
    "LONG": -75.744102,
    "PC": "K1Z 7V9",
    "TYPE": "Institutional",
    "DATE_MOD": 20180123
  },
  {
    "ID": "BH47",
    "NAME": "Hay House",
    "OTHER_NAME": "",
    "ADDRESS": "700 Echo Drive",
    "ADDRESS_FR": "700, prom Echo",
    "CITY": "Ottawa",
    "PROVINCE": "ON",
    "DESIGNATION": "Local",
    "DESIGNATION_SPECIFIC": "PartIV",
    "LAT": 45.39687836,
    "LONG": -75.67970214,
    "PC": "K1S 1P3",
    "TYPE": "Residential",
    "DATE_MOD": 20180123
  },
  {
    "ID": "BH192",
    "NAME": "Hayne House",
    "OTHER_NAME": "",
    "ADDRESS": "40 Fuller Street",
    "ADDRESS_FR": "40, rue Fuller",
    "CITY": "Ottawa",
    "PROVINCE": "ON",
    "DESIGNATION": "Local",
    "DESIGNATION_SPECIFIC": "PartIV",
    "LAT": 45.39793771,
    "LONG": -75.72076701,
    "PC": "K1Y 3R8",
    "TYPE": "Residential",
    "DATE_MOD": 20180123
  },
  {
    "ID": "BH44",
    "NAME": "Williams House",
    "OTHER_NAME": "",
    "ADDRESS": "96 Southern Drive",
    "ADDRESS_FR": "96, prom Southern",
    "CITY": "Ottawa",
    "PROVINCE": "ON",
    "DESIGNATION": "Local",
    "DESIGNATION_SPECIFIC": "PartIV",
    "LAT": 45.39873256,
    "LONG": -75.67416136,
    "PC": "K1S 0P6",
    "TYPE": "Residential",
    "DATE_MOD": 20180123
  },
  {
    "ID": "BH183",
    "NAME": "Connors House",
    "OTHER_NAME": "",
    "ADDRESS": "166 Huron Avenue",
    "ADDRESS_FR": "166, av Huron",
    "CITY": "Ottawa",
    "PROVINCE": "ON",
    "DESIGNATION": "Local",
    "DESIGNATION_SPECIFIC": "PartIV",
    "LAT": 45.39886268,
    "LONG": -75.73293616,
    "PC": "K1Y 0W4",
    "TYPE": "Residential",
    "DATE_MOD": 20180123
  },
  {
    "ID": "BH56",
    "NAME": "Abbotsford House",
    "OTHER_NAME": "",
    "ADDRESS": "954 Bank Street",
    "ADDRESS_FR": "954, rue Bank",
    "CITY": "Ottawa",
    "PROVINCE": "ON",
    "DESIGNATION": "Local",
    "DESIGNATION_SPECIFIC": "PartIV",
    "LAT": 45.39915952,
    "LONG": -75.68661724,
    "PC": "K1S 5G6",
    "TYPE": "Residential",
    "DATE_MOD": 20180123
  },
  {
    "ID": "BH185",
    "NAME": "Parkdale Fire Station (#11)",
    "OTHER_NAME": "",
    "ADDRESS": "424 Parkdale Avenue",
    "ADDRESS_FR": "424, av Parkdale",
    "CITY": "Ottawa",
    "PROVINCE": "ON",
    "DESIGNATION": "Local",
    "DESIGNATION_SPECIFIC": "PartIV",
    "LAT": 45.39979108,
    "LONG": -75.72893569,
    "PC": "K1Y 1H1",
    "TYPE": "Institutional",
    "DATE_MOD": 20180123
  },
  {
    "ID": "BH55",
    "NAME": "Aberdeen Pavilion",
    "OTHER_NAME": "",
    "ADDRESS": "959 Bank Street",
    "ADDRESS_FR": "959, rue Bank",
    "CITY": "Ottawa",
    "PROVINCE": "ON",
    "DESIGNATION": "Local,National",
    "DESIGNATION_SPECIFIC": "PartIV,NHS",
    "LAT": 45.3999801,
    "LONG": -75.68269368,
    "PC": "K1S 3W5",
    "TYPE": "Institutional",
    "DATE_MOD": 20180123
  },
  {
    "ID": "BH54",
    "NAME": "Horticulture Building",
    "OTHER_NAME": "",
    "ADDRESS": "957 Bank Street",
    "ADDRESS_FR": "957, rue Bank",
    "CITY": "Ottawa",
    "PROVINCE": "ON",
    "DESIGNATION": "Local",
    "DESIGNATION_SPECIFIC": "PartIV",
    "LAT": 45.40037779,
    "LONG": -75.68407413,
    "PC": "K1S 3W5",
    "TYPE": "Institutional",
    "DATE_MOD": 20180123
  },
  {
    "ID": "BH51",
    "NAME": "Mutchmor Public School",
    "OTHER_NAME": "",
    "ADDRESS": "185 Fifth Avenue",
    "ADDRESS_FR": "185, av Fifth",
    "CITY": "Ottawa",
    "PROVINCE": "ON",
    "DESIGNATION": "Local",
    "DESIGNATION_SPECIFIC": "PartIV",
    "LAT": 45.40085614,
    "LONG": -75.69055397,
    "PC": "K1S 2N1",
    "TYPE": "Institutional",
    "DATE_MOD": 20180123
  },
  {
    "ID": "BH404",
    "NAME": "Capital Wire Cloth Factory",
    "OTHER_NAME": "",
    "ADDRESS": "7 Hinton Ave.",
    "ADDRESS_FR": "7, av Hinton",
    "CITY": "Ottawa",
    "PROVINCE": "ON",
    "DESIGNATION": "Local",
    "DESIGNATION_SPECIFIC": "PartIV",
    "LAT": 45.4015723,
    "LONG": -75.7317204,
    "PC": "K1Y 1T5",
    "TYPE": "Commercial",
    "DATE_MOD": 20180123
  },
  {
    "ID": "BH49",
    "NAME": "Glebe Community Centre",
    "OTHER_NAME": "",
    "ADDRESS": "175 Third Avenue",
    "ADDRESS_FR": "175, av Third",
    "CITY": "Ottawa",
    "PROVINCE": "ON",
    "DESIGNATION": "Local",
    "DESIGNATION_SPECIFIC": "PartIV",
    "LAT": 45.40216275,
    "LONG": -75.69147027,
    "PC": "K1S 2K2",
    "TYPE": "Institutional",
    "DATE_MOD": 20180123
  },
  {
    "ID": "BH191",
    "NAME": "1119 Wellington Street",
    "OTHER_NAME": "",
    "ADDRESS": "1119 Wellington Street",
    "ADDRESS_FR": "1119, rue Wellington",
    "CITY": "Ottawa",
    "PROVINCE": "ON",
    "DESIGNATION": "Local",
    "DESIGNATION_SPECIFIC": "PartIV",
    "LAT": 45.40256178,
    "LONG": -75.72634234,
    "PC": "K1Y 2Y6",
    "TYPE": "Residential",
    "DATE_MOD": 20180123
  },
  {
    "ID": "BH3",
    "NAME": "Former Ottawa Ladies College",
    "OTHER_NAME": "",
    "ADDRESS": "268 First Avenue",
    "ADDRESS_FR": "268, av First",
    "CITY": "Ottawa",
    "PROVINCE": "ON",
    "DESIGNATION": "Local",
    "DESIGNATION_SPECIFIC": "PartIV",
    "LAT": 45.40276432,
    "LONG": -75.69202949,
    "PC": "K1S 2N5",
    "TYPE": "Institutional",
    "DATE_MOD": 20180123
  },
  {
    "ID": "BH43",
    "NAME": "Bower House",
    "OTHER_NAME": "",
    "ADDRESS": "3 Bower Street",
    "ADDRESS_FR": "3, rue Bower",
    "CITY": "Ottawa",
    "PROVINCE": "ON",
    "DESIGNATION": "Local",
    "DESIGNATION_SPECIFIC": "PartIV",
    "LAT": 45.40298811,
    "LONG": -75.6785672,
    "PC": "K1S 0J9",
    "TYPE": "Residential",
    "DATE_MOD": 20180123
  },
  {
    "ID": "BH186",
    "NAME": "�cole Sacr�-Coeur",
    "OTHER_NAME": "",
    "ADDRESS": "19 Melrose Avenue",
    "ADDRESS_FR": "19, av Melrose",
    "CITY": "Ottawa",
    "PROVINCE": "ON",
    "DESIGNATION": "Local",
    "DESIGNATION_SPECIFIC": "PartIV",
    "LAT": 45.40303737,
    "LONG": -75.72411834,
    "PC": "K1Y 1T8",
    "TYPE": "Institutional",
    "DATE_MOD": 20180123
  },
  {
    "ID": "BH188",
    "NAME": "Mason House",
    "OTHER_NAME": "",
    "ADDRESS": "101 Bayswater Avenue",
    "ADDRESS_FR": "101, av Bayswater",
    "CITY": "Ottawa",
    "PROVINCE": "ON",
    "DESIGNATION": "Local",
    "DESIGNATION_SPECIFIC": "PartIV",
    "LAT": 45.404049,
    "LONG": -75.719208,
    "PC": "K1Y 2G2",
    "TYPE": "Residential",
    "DATE_MOD": 20180123
  },
  {
    "ID": "BH311",
    "NAME": "Brantwood Place Gates",
    "OTHER_NAME": "",
    "ADDRESS": "Main Street at Beckwith Road",
    "ADDRESS_FR": "rue Main et chemin Beckwith",
    "CITY": "Ottawa",
    "PROVINCE": "ON",
    "DESIGNATION": "Local",
    "DESIGNATION_SPECIFIC": "PartIV",
    "LAT": 45.40443978,
    "LONG": -75.67520037,
    "PC": "",
    "TYPE": "Other",
    "DATE_MOD": 20180123
  },
  {
    "ID": "BH189",
    "NAME": "Devonshire School",
    "OTHER_NAME": "",
    "ADDRESS": "100 Breezehill Avenue",
    "ADDRESS_FR": "100, av Breezehill",
    "CITY": "Ottawa",
    "PROVINCE": "ON",
    "DESIGNATION": "Local",
    "DESIGNATION_SPECIFIC": "PartIV",
    "LAT": 45.40555507,
    "LONG": -75.71888823,
    "PC": "K1Y 2H5",
    "TYPE": "Institutional",
    "DATE_MOD": 20180123
  },
  {
    "ID": "BH48",
    "NAME": "Powell House",
    "OTHER_NAME": "",
    "ADDRESS": "85 Glebe Avenue",
    "ADDRESS_FR": "85, av Glebe",
    "CITY": "Ottawa",
    "PROVINCE": "ON",
    "DESIGNATION": "Local",
    "DESIGNATION_SPECIFIC": "PartIV",
    "LAT": 45.40617511,
    "LONG": -75.68772177,
    "PC": "K1S 2C2",
    "TYPE": "Residential",
    "DATE_MOD": 20180123
  },
  {
    "ID": "BH50",
    "NAME": "First Avenue Public School",
    "OTHER_NAME": "",
    "ADDRESS": "73 First Avenue",
    "ADDRESS_FR": "73, av First",
    "CITY": "Ottawa",
    "PROVINCE": "ON",
    "DESIGNATION": "Local",
    "DESIGNATION_SPECIFIC": "PartIV",
    "LAT": 45.40642226,
    "LONG": -75.68534665,
    "PC": "K1S 2M3",
    "TYPE": "Institutional",
    "DATE_MOD": 20180123
  },
  {
    "ID": "BH190",
    "NAME": "Armstrong House",
    "OTHER_NAME": "",
    "ADDRESS": "35 Armstrong Street",
    "ADDRESS_FR": "35, rue Armstrong",
    "CITY": "Ottawa",
    "PROVINCE": "ON",
    "DESIGNATION": "Local",
    "DESIGNATION_SPECIFIC": "PartIV",
    "LAT": 45.4065096,
    "LONG": -75.72339082,
    "PC": "K1Y 2V4",
    "TYPE": "Residential",
    "DATE_MOD": 20180123
  },
  {
    "ID": "BH53",
    "NAME": "Queale Terrace",
    "OTHER_NAME": "",
    "ADDRESS": "304-312 Queen Elizabeth Driveway",
    "ADDRESS_FR": "304-312, prom Queen Elizabeth",
    "CITY": "Ottawa",
    "PROVINCE": "ON",
    "DESIGNATION": "Local",
    "DESIGNATION_SPECIFIC": "PartIV",
    "LAT": 45.40679943,
    "LONG": -75.68260471,
    "PC": "K1S 3M7",
    "TYPE": "Residential",
    "DATE_MOD": 20180123
  },
  {
    "ID": "BH42",
    "NAME": "Plant Bath",
    "OTHER_NAME": "930 Somerset Street West",
    "ADDRESS": "130 PRESTON STREET",
    "ADDRESS_FR": "130, rue Preston",
    "CITY": "Ottawa",
    "PROVINCE": "ON",
    "DESIGNATION": "Local",
    "DESIGNATION_SPECIFIC": "PartIV",
    "LAT": 45.40800975,
    "LONG": -75.71441739,
    "PC": "K1R 7P6",
    "TYPE": "Institutional",
    "DATE_MOD": 20180123
  },
  {
    "ID": "BH406",
    "NAME": "�difice Desch�telets",
    "OTHER_NAME": "",
    "ADDRESS": "175 Main St.",
    "ADDRESS_FR": "175, rue Main",
    "CITY": "Ottawa",
    "PROVINCE": "ON",
    "DESIGNATION": "Local",
    "DESIGNATION_SPECIFIC": "PartIV",
    "LAT": 45.409513,
    "LONG": -75.6781286,
    "PC": "K1S 1C3",
    "TYPE": "Institutional",
    "DATE_MOD": 20180123
  },
  {
    "ID": "BH41",
    "NAME": "St. Luke's Anglican Church",
    "OTHER_NAME": "",
    "ADDRESS": "760 Somerset Street West",
    "ADDRESS_FR": "760, rue Somerset Ouest",
    "CITY": "Ottawa",
    "PROVINCE": "ON",
    "DESIGNATION": "Local",
    "DESIGNATION_SPECIFIC": "PartIV",
    "LAT": 45.41024915,
    "LONG": -75.7083181,
    "PC": "K1R 6P7",
    "TYPE": "Institutional",
    "DATE_MOD": 20180123
  },
  {
    "ID": "BH40",
    "NAME": "Venn House",
    "OTHER_NAME": "",
    "ADDRESS": "69 Elm Street",
    "ADDRESS_FR": "69, rue Elm",
    "CITY": "Ottawa",
    "PROVINCE": "ON",
    "DESIGNATION": "Local",
    "DESIGNATION_SPECIFIC": "PartIV",
    "LAT": 45.41032322,
    "LONG": -75.71377335,
    "PC": "K1R 6N2",
    "TYPE": "Residential",
    "DATE_MOD": 20180123
  },
  {
    "ID": "BH37",
    "NAME": "Powers House",
    "OTHER_NAME": "",
    "ADDRESS": "429-431 Bay Street",
    "ADDRESS_FR": "429-431, rue Bay",
    "CITY": "Ottawa",
    "PROVINCE": "ON",
    "DESIGNATION": "Local",
    "DESIGNATION_SPECIFIC": "PartIV",
    "LAT": 45.41087848,
    "LONG": -75.70016912,
    "PC": "K1R 6A7",
    "TYPE": "Residential",
    "DATE_MOD": 20180123
  },
  {
    "ID": "BH36",
    "NAME": "Hollywood Parade",
    "OTHER_NAME": "",
    "ADDRESS": "103-113 James Street",
    "ADDRESS_FR": "103-113, rue James",
    "CITY": "Ottawa",
    "PROVINCE": "ON",
    "DESIGNATION": "Local",
    "DESIGNATION_SPECIFIC": "PartIV",
    "LAT": 45.41201955,
    "LONG": -75.69870912,
    "PC": "K1R 5M2",
    "TYPE": "Residential",
    "DATE_MOD": 20180123
  },
  {
    "ID": "BH187",
    "NAME": "Hintonburg Pumping Station",
    "OTHER_NAME": "",
    "ADDRESS": "3 River Street",
    "ADDRESS_FR": "3, rue River",
    "CITY": "Ottawa",
    "PROVINCE": "ON",
    "DESIGNATION": "Local",
    "DESIGNATION_SPECIFIC": "PartIV",
    "LAT": 45.41221334,
    "LONG": -75.73003349,
    "PC": "K1Y 2C4",
    "TYPE": "Industrial",
    "DATE_MOD": 20180123
  },
  {
    "ID": "BH81",
    "NAME": "Victoria Memorial Museum",
    "OTHER_NAME": "Canadian Museum of Nature",
    "ADDRESS": "240 McLeod Street",
    "ADDRESS_FR": "240, rue McLeod",
    "CITY": "Ottawa",
    "PROVINCE": "ON",
    "DESIGNATION": "Local,National",
    "DESIGNATION_SPECIFIC": "PartIV,NHS",
    "LAT": 45.41284,
    "LONG": -75.68861,
    "PC": "K2P 2R1",
    "TYPE": "Institutional",
    "DATE_MOD": 20180123
  },
  {
    "ID": "BH46",
    "NAME": "Ottawa East Town Hall",
    "OTHER_NAME": "",
    "ADDRESS": "61 Main Street",
    "ADDRESS_FR": "61, rue Main",
    "CITY": "Ottawa",
    "PROVINCE": "ON",
    "DESIGNATION": "Local",
    "DESIGNATION_SPECIFIC": "PartIV",
    "LAT": 45.41299647,
    "LONG": -75.67987912,
    "PC": "K1S 1B3",
    "TYPE": "Institutional",
    "DATE_MOD": 20180123
  },
  {
    "ID": "BH310",
    "NAME": "Lemieux Island Bridge",
    "OTHER_NAME": "",
    "ADDRESS": "LEMIEUX ISLAND",
    "ADDRESS_FR": "ile Lemieux",
    "CITY": "Ottawa",
    "PROVINCE": "ON",
    "DESIGNATION": "Local",
    "DESIGNATION_SPECIFIC": "PartIV",
    "LAT": 45.41308368,
    "LONG": -75.73086185,
    "PC": "",
    "TYPE": "Other",
    "DATE_MOD": 20180123
  },
  {
    "ID": "BH415",
    "NAME": "Bethany Hope Centre",
    "OTHER_NAME": "",
    "ADDRESS": "1140 Wellington St.",
    "ADDRESS_FR": "1140, rue Wellington",
    "CITY": "Ottawa",
    "PROVINCE": "ON",
    "DESIGNATION": "Local",
    "DESIGNATION_SPECIFIC": "PartIV",
    "LAT": 45.4133461,
    "LONG": -75.7128717,
    "PC": "K1Y 2C5",
    "TYPE": "Institutional",
    "DATE_MOD": 20180123
  },
  {
    "ID": "BH308",
    "NAME": "Pooley's Bridge",
    "OTHER_NAME": "",
    "ADDRESS": "9 Fleet Street",
    "ADDRESS_FR": "9, rue Fleet",
    "CITY": "Ottawa",
    "PROVINCE": "ON",
    "DESIGNATION": "Local",
    "DESIGNATION_SPECIFIC": "PartIV",
    "LAT": 45.41352514,
    "LONG": -75.71527024,
    "PC": "",
    "TYPE": "Other",
    "DATE_MOD": 20180123
  },
  {
    "ID": "BH39",
    "NAME": "190 Bronson Avenue",
    "OTHER_NAME": "",
    "ADDRESS": "190 Bronson Avenue",
    "ADDRESS_FR": "190, av Bronson",
    "CITY": "Ottawa",
    "PROVINCE": "ON",
    "DESIGNATION": "Local",
    "DESIGNATION_SPECIFIC": "PartIV",
    "LAT": 45.41412637,
    "LONG": -75.70764043,
    "PC": "K1R 6H4",
    "TYPE": "Residential",
    "DATE_MOD": 20180123
  },
  {
    "ID": "BH38",
    "NAME": "176 Bronson Avenue",
    "OTHER_NAME": "",
    "ADDRESS": "176 Bronson Avenue",
    "ADDRESS_FR": "176, av Bronson",
    "CITY": "Ottawa",
    "PROVINCE": "ON",
    "DESIGNATION": "Local",
    "DESIGNATION_SPECIFIC": "PartIV",
    "LAT": 45.4142888,
    "LONG": -75.70775609,
    "PC": "K1R 6H4",
    "TYPE": "Residential",
    "DATE_MOD": 20180123
  },
  {
    "ID": "BH77",
    "NAME": "Former Bank of Montreal",
    "OTHER_NAME": "",
    "ADDRESS": "294 Bank Street",
    "ADDRESS_FR": "294, rue Bank",
    "CITY": "Ottawa",
    "PROVINCE": "ON",
    "DESIGNATION": "Local",
    "DESIGNATION_SPECIFIC": "PartIV",
    "LAT": 45.41480016,
    "LONG": -75.69611334,
    "PC": "K2P 1X7",
    "TYPE": "Commercial",
    "DATE_MOD": 20180123
  },
  {
    "ID": "BH75",
    "NAME": "Birkett House",
    "OTHER_NAME": "",
    "ADDRESS": "306 Metcalfe Street",
    "ADDRESS_FR": "306, rue Metcalfe",
    "CITY": "Ottawa",
    "PROVINCE": "ON",
    "DESIGNATION": "Local",
    "DESIGNATION_SPECIFIC": "PartIV",
    "LAT": 45.41486458,
    "LONG": -75.69091897,
    "PC": "K2P 1S2",
    "TYPE": "Residential",
    "DATE_MOD": 20180123
  },
  {
    "ID": "BH405",
    "NAME": "Alexander Fleck House",
    "OTHER_NAME": "",
    "ADDRESS": "593 Laurier Ave. W.",
    "ADDRESS_FR": "593, av Laurier",
    "CITY": "Ottawa",
    "PROVINCE": "ON",
    "DESIGNATION": "Local",
    "DESIGNATION_SPECIFIC": "PartIV",
    "LAT": 45.4149153,
    "LONG": -75.7078267,
    "PC": "K1R 6K9",
    "TYPE": "Residential",
    "DATE_MOD": 20180123
  },
  {
    "ID": "BH67",
    "NAME": "6 McLeod Street",
    "OTHER_NAME": "",
    "ADDRESS": "6 McLeod Street",
    "ADDRESS_FR": "6, rue McLeod",
    "CITY": "Ottawa",
    "PROVINCE": "ON",
    "DESIGNATION": "Local",
    "DESIGNATION_SPECIFIC": "PartIV",
    "LAT": 45.41503707,
    "LONG": -75.68330606,
    "PC": "K2P 0Z5",
    "TYPE": "Residential",
    "DATE_MOD": 20180123
  },
  {
    "ID": "BH74",
    "NAME": "301 Metcalfe Street",
    "OTHER_NAME": "",
    "ADDRESS": "301 Metcalfe Street",
    "ADDRESS_FR": "301, rue Metcalfe",
    "CITY": "Ottawa",
    "PROVINCE": "ON",
    "DESIGNATION": "Local",
    "DESIGNATION_SPECIFIC": "PartIV",
    "LAT": 45.41520862,
    "LONG": -75.69041664,
    "PC": "K2P 1R9",
    "TYPE": "Residential",
    "DATE_MOD": 20180123
  },
  {
    "ID": "BH80",
    "NAME": "Chamberlain House",
    "OTHER_NAME": "",
    "ADDRESS": "326-328 Somerset Street West",
    "ADDRESS_FR": "326-328, rue Somerset Ouest",
    "CITY": "Ottawa",
    "PROVINCE": "ON",
    "DESIGNATION": "Local",
    "DESIGNATION_SPECIFIC": "PartIV",
    "LAT": 45.41571296,
    "LONG": -75.69486046,
    "PC": "K2P 2P1",
    "TYPE": "Residential",
    "DATE_MOD": 20180123
  },
  {
    "ID": "BH79",
    "NAME": "Butterworth House",
    "OTHER_NAME": "",
    "ADDRESS": "324 Somerset Street West",
    "ADDRESS_FR": "324, rue Somerset Ouest",
    "CITY": "Ottawa",
    "PROVINCE": "ON",
    "DESIGNATION": "Local",
    "DESIGNATION_SPECIFIC": "PartIV",
    "LAT": 45.41576816,
    "LONG": -75.69472643,
    "PC": "K2P 2P1",
    "TYPE": "Residential",
    "DATE_MOD": 20180123
  },
  {
    "ID": "BH6",
    "NAME": "261-263 O'Connor Street",
    "OTHER_NAME": "",
    "ADDRESS": "261-263 O'Connor Street",
    "ADDRESS_FR": "261-263, rue O'Connor",
    "CITY": "Ottawa",
    "PROVINCE": "ON",
    "DESIGNATION": "Local",
    "DESIGNATION_SPECIFIC": "PartIV",
    "LAT": 45.4158405,
    "LONG": -75.69370299,
    "PC": "K2P 1V1",
    "TYPE": "Residential",
    "DATE_MOD": 20180123
  },
  {
    "ID": "BH309",
    "NAME": "City Waterworks Building",
    "OTHER_NAME": "",
    "ADDRESS": "10 Fleet Street",
    "ADDRESS_FR": "10, rue Fleet",
    "CITY": "Ottawa",
    "PROVINCE": "ON",
    "DESIGNATION": "Local",
    "DESIGNATION_SPECIFIC": "PartIV",
    "LAT": 45.4160579,
    "LONG": -75.710854,
    "PC": "",
    "TYPE": "Industrial",
    "DATE_MOD": 20180123
  },
  {
    "ID": "BH65",
    "NAME": "Pope House",
    "OTHER_NAME": "",
    "ADDRESS": "275 MacLaren Street",
    "ADDRESS_FR": "275, rue MacLaren",
    "CITY": "Ottawa",
    "PROVINCE": "ON",
    "DESIGNATION": "Local",
    "DESIGNATION_SPECIFIC": "PartIV",
    "LAT": 45.41617446,
    "LONG": -75.69289634,
    "PC": "K2P 0L9",
    "TYPE": "Residential",
    "DATE_MOD": 20180123
  },
  {
    "ID": "BH34",
    "NAME": "504 Albert Street",
    "OTHER_NAME": "",
    "ADDRESS": "504 Albert Street",
    "ADDRESS_FR": "504, rue Albert",
    "CITY": "Ottawa",
    "PROVINCE": "ON",
    "DESIGNATION": "Local",
    "DESIGNATION_SPECIFIC": "PartIV",
    "LAT": 45.41625397,
    "LONG": -75.70827316,
    "PC": "K1R 5B5",
    "TYPE": "Residential",
    "DATE_MOD": 20180123
  },
  {
    "ID": "BH33",
    "NAME": "494 Albert Street",
    "OTHER_NAME": "",
    "ADDRESS": "494 Albert Street",
    "ADDRESS_FR": "494, rue Albert",
    "CITY": "Ottawa",
    "PROVINCE": "ON",
    "DESIGNATION": "Local",
    "DESIGNATION_SPECIFIC": "PartIV",
    "LAT": 45.41638565,
    "LONG": -75.70801973,
    "PC": "K1R 5B5",
    "TYPE": "Residential",
    "DATE_MOD": 20180123
  },
  {
    "ID": "BH403",
    "NAME": "Embassy of the Republic of Armenia in Canada",
    "OTHER_NAME": "",
    "ADDRESS": "7 Delaware Ave.",
    "ADDRESS_FR": "7, av Delaware",
    "CITY": "Ottawa",
    "PROVINCE": "ON",
    "DESIGNATION": "Local",
    "DESIGNATION_SPECIFIC": "PartIV",
    "LAT": 45.4164118,
    "LONG": -75.6825099,
    "PC": "K2P 0Z2",
    "TYPE": "Other",
    "DATE_MOD": 20180123
  },
  {
    "ID": "BH400",
    "NAME": "VIA Rail Station",
    "OTHER_NAME": "Union Station,Ottawa Railway Station",
    "ADDRESS": "200 Tremblay Rd.",
    "ADDRESS_FR": "200, chemin Tremblay",
    "CITY": "Ottawa",
    "PROVINCE": "ON",
    "DESIGNATION": "National",
    "DESIGNATION_SPECIFIC": "HRSC",
    "LAT": 45.4164359,
    "LONG": -75.6515711,
    "PC": "K1G 3H5",
    "TYPE": "Institutional",
    "DATE_MOD": 20180123
  },
  {
    "ID": "BH73",
    "NAME": "John R. Booth Residence",
    "OTHER_NAME": "",
    "ADDRESS": "252 Metcalfe Street",
    "ADDRESS_FR": "252, rue Metcalfe",
    "CITY": "Ottawa",
    "PROVINCE": "ON",
    "DESIGNATION": "Local,National",
    "DESIGNATION_SPECIFIC": "PartIV,NHS",
    "LAT": 45.4164582,
    "LONG": -75.6922138,
    "PC": "K2P 1R3",
    "TYPE": "Residential",
    "DATE_MOD": 20180123
  },
  {
    "ID": "BH35",
    "NAME": "St. Patrick's Roman Catholic Basilica",
    "OTHER_NAME": "281 Nepean Street",
    "ADDRESS": "240 Kent Street",
    "ADDRESS_FR": "240, rue Kent",
    "CITY": "Ottawa",
    "PROVINCE": "ON",
    "DESIGNATION": "Local",
    "DESIGNATION_SPECIFIC": "PartIV",
    "LAT": 45.41657856,
    "LONG": -75.70089551,
    "PC": "K1R 5G2",
    "TYPE": "Institutional",
    "DATE_MOD": 20180123
  },
  {
    "ID": "BH72",
    "NAME": "Chelsea Club",
    "OTHER_NAME": "Campbell House",
    "ADDRESS": "236 Metcalfe Street",
    "ADDRESS_FR": "236, rue Metcalfe",
    "CITY": "Ottawa",
    "PROVINCE": "ON",
    "DESIGNATION": "Local",
    "DESIGNATION_SPECIFIC": "PartIV",
    "LAT": 45.41673115,
    "LONG": -75.69250632,
    "PC": "K2P 1R3",
    "TYPE": "Residential",
    "DATE_MOD": 20180123
  },
  {
    "ID": "BH59",
    "NAME": "Quinn's Row",
    "OTHER_NAME": "",
    "ADDRESS": "245-251 Nepean Street",
    "ADDRESS_FR": "245-251, rue Nepean",
    "CITY": "Ottawa",
    "PROVINCE": "ON",
    "DESIGNATION": "Local",
    "DESIGNATION_SPECIFIC": "PartIV",
    "LAT": 45.41678711,
    "LONG": -75.69980084,
    "PC": "K2P 0B7",
    "TYPE": "Residential",
    "DATE_MOD": 20180123
  },
  {
    "ID": "BH5",
    "NAME": "310 Cooper Street",
    "OTHER_NAME": "",
    "ADDRESS": "310 Cooper Street",
    "ADDRESS_FR": "310, rue Cooper",
    "CITY": "Ottawa",
    "PROVINCE": "ON",
    "DESIGNATION": "Local",
    "DESIGNATION_SPECIFIC": "PartIV",
    "LAT": 45.41710221,
    "LONG": -75.69368919,
    "PC": "K2P 0G7",
    "TYPE": "Residential",
    "DATE_MOD": 20180123
  },
  {
    "ID": "BH62",
    "NAME": "The Shefford",
    "OTHER_NAME": "",
    "ADDRESS": "300 Cooper Street",
    "ADDRESS_FR": "300, rue Cooper",
    "CITY": "Ottawa",
    "PROVINCE": "ON",
    "DESIGNATION": "Local",
    "DESIGNATION_SPECIFIC": "PartIV",
    "LAT": 45.41722124,
    "LONG": -75.69340116,
    "PC": "K2P 0G7",
    "TYPE": "Residential",
    "DATE_MOD": 20180123
  },
  {
    "ID": "BH71",
    "NAME": "Duncannon",
    "OTHER_NAME": "",
    "ADDRESS": "216 Metcalfe Street",
    "ADDRESS_FR": "216, rue Metcalfe",
    "CITY": "Ottawa",
    "PROVINCE": "ON",
    "DESIGNATION": "Local",
    "DESIGNATION_SPECIFIC": "PartIV",
    "LAT": 45.41736805,
    "LONG": -75.69299453,
    "PC": "K2P 1R1",
    "TYPE": "Residential",
    "DATE_MOD": 20180123
  },
  {
    "ID": "BH32",
    "NAME": "Puddicombe House",
    "OTHER_NAME": "",
    "ADDRESS": "410 Queen Street",
    "ADDRESS_FR": "410, rue Queen",
    "CITY": "Ottawa",
    "PROVINCE": "ON",
    "DESIGNATION": "Local",
    "DESIGNATION_SPECIFIC": "PartIV",
    "LAT": 45.41753182,
    "LONG": -75.70723437,
    "PC": "K1R 5A7",
    "TYPE": "Residential",
    "DATE_MOD": 20180123
  },
  {
    "ID": "BH31",
    "NAME": "408 Queen Street",
    "OTHER_NAME": "",
    "ADDRESS": "408 Queen Street",
    "ADDRESS_FR": "408, rue Queen",
    "CITY": "Ottawa",
    "PROVINCE": "ON",
    "DESIGNATION": "Local",
    "DESIGNATION_SPECIFIC": "PartIV",
    "LAT": 45.41758601,
    "LONG": -75.70710911,
    "PC": "K1R 5A7",
    "TYPE": "Residential",
    "DATE_MOD": 20180123
  },
  {
    "ID": "BH30",
    "NAME": "Hutcheson House",
    "OTHER_NAME": "",
    "ADDRESS": "406 Queen Street",
    "ADDRESS_FR": "406, rue Queen",
    "CITY": "Ottawa",
    "PROVINCE": "ON",
    "DESIGNATION": "Local",
    "DESIGNATION_SPECIFIC": "PartIV",
    "LAT": 45.41763497,
    "LONG": -75.70699396,
    "PC": "K1R 5A7",
    "TYPE": "Residential",
    "DATE_MOD": 20180123
  },
  {
    "ID": "BH29",
    "NAME": "Christ Church Cathedral",
    "OTHER_NAME": "",
    "ADDRESS": "439 Queen Street",
    "ADDRESS_FR": "439, rue Queen",
    "CITY": "Ottawa",
    "PROVINCE": "ON",
    "DESIGNATION": "Local",
    "DESIGNATION_SPECIFIC": "PartIV",
    "LAT": 45.41774645,
    "LONG": -75.7082776,
    "PC": "K1R 5A6",
    "TYPE": "Institutional",
    "DATE_MOD": 20180123
  },
  {
    "ID": "BH1",
    "NAME": "James Fleck House",
    "OTHER_NAME": "",
    "ADDRESS": "404 Queen Street",
    "ADDRESS_FR": "404, rue Queen",
    "CITY": "Ottawa",
    "PROVINCE": "ON",
    "DESIGNATION": "Local",
    "DESIGNATION_SPECIFIC": "PartIV",
    "LAT": 45.41775457,
    "LONG": -75.70668049,
    "PC": "K1R 5A7",
    "TYPE": "Residential",
    "DATE_MOD": 20180123
  },
  {
    "ID": "BH61",
    "NAME": "224 Cooper Street",
    "OTHER_NAME": "",
    "ADDRESS": "224 Cooper Street",
    "ADDRESS_FR": "224, rue Cooper",
    "CITY": "Ottawa",
    "PROVINCE": "ON",
    "DESIGNATION": "Local",
    "DESIGNATION_SPECIFIC": "PartIV",
    "LAT": 45.41803703,
    "LONG": -75.69142699,
    "PC": "K2P 0G4",
    "TYPE": "Residential",
    "DATE_MOD": 20180123
  },
  {
    "ID": "BH64",
    "NAME": "Pattee/Freiman House",
    "OTHER_NAME": "",
    "ADDRESS": "149 Somerset Street West",
    "ADDRESS_FR": "149, rue Somerset Ouest",
    "CITY": "Ottawa",
    "PROVINCE": "ON",
    "DESIGNATION": "Local",
    "DESIGNATION_SPECIFIC": "PartIV",
    "LAT": 45.41840811,
    "LONG": -75.6897003,
    "PC": "K2P 0H3",
    "TYPE": "Residential",
    "DATE_MOD": 20180123
  },
  {
    "ID": "BH26",
    "NAME": "132-138 Bank Street",
    "OTHER_NAME": "",
    "ADDRESS": "132-138 Bank Street",
    "ADDRESS_FR": "132-138, rue Bank",
    "CITY": "Ottawa",
    "PROVINCE": "ON",
    "DESIGNATION": "Local",
    "DESIGNATION_SPECIFIC": "PartIV",
    "LAT": 45.41861187,
    "LONG": -75.70045776,
    "PC": "K1P 5N8",
    "TYPE": "Commercial",
    "DATE_MOD": 20180123
  },
  {
    "ID": "BH60",
    "NAME": "182-184 Lisgar Street",
    "OTHER_NAME": "",
    "ADDRESS": "182-184 Lisgar Street",
    "ADDRESS_FR": "182-184, rue Lisgar",
    "CITY": "Ottawa",
    "PROVINCE": "ON",
    "DESIGNATION": "Local",
    "DESIGNATION_SPECIFIC": "PartIV",
    "LAT": 45.41863155,
    "LONG": -75.69222901,
    "PC": "K2P 0C4",
    "TYPE": "Residential",
    "DATE_MOD": 20180123
  },
  {
    "ID": "BH66",
    "NAME": "Clarke House",
    "OTHER_NAME": "",
    "ADDRESS": "43 Gilmour Street",
    "ADDRESS_FR": "43, rue Gilmour",
    "CITY": "Ottawa",
    "PROVINCE": "ON",
    "DESIGNATION": "Local",
    "DESIGNATION_SPECIFIC": "PartIV",
    "LAT": 45.4187711,
    "LONG": -75.68448272,
    "PC": "K2P 0N1",
    "TYPE": "Residential",
    "DATE_MOD": 20180123
  },
  {
    "ID": "BH68",
    "NAME": "46 Cartier Street",
    "OTHER_NAME": "",
    "ADDRESS": "46 Cartier Street",
    "ADDRESS_FR": "46, rue Cartier",
    "CITY": "Ottawa",
    "PROVINCE": "ON",
    "DESIGNATION": "Local",
    "DESIGNATION_SPECIFIC": "PartIV",
    "LAT": 45.41877552,
    "LONG": -75.68876625,
    "PC": "K2P 1J3",
    "TYPE": "Residential",
    "DATE_MOD": 20180123
  },
  {
    "ID": "BH70",
    "NAME": "Ottawa Normal School (Teacher's College)",
    "OTHER_NAME": "",
    "ADDRESS": "195 Elgin Street",
    "ADDRESS_FR": "195, rue Elgin",
    "CITY": "Ottawa",
    "PROVINCE": "ON",
    "DESIGNATION": "Local,National",
    "DESIGNATION_SPECIFIC": "PartIV,NHS",
    "LAT": 45.4190454,
    "LONG": -75.6913422,
    "PC": "K2P 1L6",
    "TYPE": "Institutional",
    "DATE_MOD": 20180123
  },
  {
    "ID": "BH401",
    "NAME": "�glise Saint-Charles",
    "OTHER_NAME": "",
    "ADDRESS": "135 Barrette St.",
    "ADDRESS_FR": "135, rue Barrette",
    "CITY": "Ottawa",
    "PROVINCE": "ON",
    "DESIGNATION": "Local",
    "DESIGNATION_SPECIFIC": "PartIV",
    "LAT": 45.4191949,
    "LONG": -75.6994436,
    "PC": "K1P 5N7",
    "TYPE": "Institutional",
    "DATE_MOD": 20180123
  },
  {
    "ID": "BH58",
    "NAME": "Nagel House",
    "OTHER_NAME": "",
    "ADDRESS": "77 Gloucester Street",
    "ADDRESS_FR": "77, rue Gloucester",
    "CITY": "Ottawa",
    "PROVINCE": "ON",
    "DESIGNATION": "Local",
    "DESIGNATION_SPECIFIC": "PartIV",
    "LAT": 45.41942186,
    "LONG": -75.69531042,
    "PC": "K2P 0A1",
    "TYPE": "Residential",
    "DATE_MOD": 20180123
  },
  {
    "ID": "BH25",
    "NAME": "109 Bank Street",
    "OTHER_NAME": "",
    "ADDRESS": "109 Bank Street",
    "ADDRESS_FR": "109, rue Bank",
    "CITY": "Ottawa",
    "PROVINCE": "ON",
    "DESIGNATION": "Local",
    "DESIGNATION_SPECIFIC": "PartIV",
    "LAT": 45.41991096,
    "LONG": -75.69995955,
    "PC": "K1P 5N5",
    "TYPE": "Commercial",
    "DATE_MOD": 20180123
  },
  {
    "ID": "BH63",
    "NAME": "Adams House",
    "OTHER_NAME": "",
    "ADDRESS": "29 Somerset Street West",
    "ADDRESS_FR": "29, rue Somerset Ouest",
    "CITY": "Ottawa",
    "PROVINCE": "ON",
    "DESIGNATION": "Local",
    "DESIGNATION_SPECIFIC": "PartIV",
    "LAT": 45.41993242,
    "LONG": -75.68615456,
    "PC": "K2P 0H3",
    "TYPE": "Residential",
    "DATE_MOD": 20180123
  },
  {
    "ID": "BH69",
    "NAME": "Grant House",
    "OTHER_NAME": "",
    "ADDRESS": "150 Elgin Street",
    "ADDRESS_FR": "150, rue Elgin",
    "CITY": "Ottawa",
    "PROVINCE": "ON",
    "DESIGNATION": "Local",
    "DESIGNATION_SPECIFIC": "PartIV",
    "LAT": 45.42041734,
    "LONG": -75.69287323,
    "PC": "K2P 1L4",
    "TYPE": "Residential",
    "DATE_MOD": 20180123
  },
  {
    "ID": "BH27",
    "NAME": "St. Andrew's Presbyterian Church",
    "OTHER_NAME": "",
    "ADDRESS": "82 Kent Street",
    "ADDRESS_FR": "82, rue Kent",
    "CITY": "Ottawa",
    "PROVINCE": "ON",
    "DESIGNATION": "Local",
    "DESIGNATION_SPECIFIC": "PartIV",
    "LAT": 45.42050693,
    "LONG": -75.70397453,
    "PC": "K1P 5N9",
    "TYPE": "Institutional",
    "DATE_MOD": 20180123
  },
  {
    "ID": "BH21",
    "NAME": "First Baptist Church",
    "OTHER_NAME": "",
    "ADDRESS": "140 Laurier Ave W",
    "ADDRESS_FR": "140, av Laurier Ouest",
    "CITY": "Ottawa",
    "PROVINCE": "ON",
    "DESIGNATION": "Local",
    "DESIGNATION_SPECIFIC": "PartIV",
    "LAT": 45.42067161,
    "LONG": -75.69325917,
    "PC": "K1P 5J4",
    "TYPE": "Institutional",
    "DATE_MOD": 20180123
  },
  {
    "ID": "BH4",
    "NAME": "Lisgar Collegiate",
    "OTHER_NAME": "",
    "ADDRESS": "29 Lisgar Street",
    "ADDRESS_FR": "29, rue Lisgar",
    "CITY": "Ottawa",
    "PROVINCE": "ON",
    "DESIGNATION": "Local",
    "DESIGNATION_SPECIFIC": "PartIV",
    "LAT": 45.42087149,
    "LONG": -75.68798354,
    "PC": "K2P 0B9",
    "TYPE": "Institutional",
    "DATE_MOD": 20180123
  },
  {
    "ID": "BH78",
    "NAME": "2 Queen Elizabeth Driveway",
    "OTHER_NAME": "",
    "ADDRESS": "2 Queen Elizabeth Driveway",
    "ADDRESS_FR": "2, prom Queen Elizabeth",
    "CITY": "Ottawa",
    "PROVINCE": "ON",
    "DESIGNATION": "Local",
    "DESIGNATION_SPECIFIC": "PartIV",
    "LAT": 45.42133361,
    "LONG": -75.68877014,
    "PC": "K2P 2H9",
    "TYPE": "Institutional",
    "DATE_MOD": 20180123
  },
  {
    "ID": "BH20",
    "NAME": "156-158 Sparks Street",
    "OTHER_NAME": "",
    "ADDRESS": "156-158 Sparks Street",
    "ADDRESS_FR": "156-158, rue Sparks",
    "CITY": "Ottawa",
    "PROVINCE": "ON",
    "DESIGNATION": "Local",
    "DESIGNATION_SPECIFIC": "PartIV",
    "LAT": 45.42156967,
    "LONG": -75.69941915,
    "PC": "K1P 5C1",
    "TYPE": "Commercial",
    "DATE_MOD": 20180123
  },
  {
    "ID": "BH19",
    "NAME": "Former Bank of Nova Scotia",
    "OTHER_NAME": "",
    "ADDRESS": "125 Sparks Street",
    "ADDRESS_FR": "125, rue Sparks",
    "CITY": "Ottawa",
    "PROVINCE": "ON",
    "DESIGNATION": "Local",
    "DESIGNATION_SPECIFIC": "PartIV",
    "LAT": 45.42248835,
    "LONG": -75.6991932,
    "PC": "K1P 5B5",
    "TYPE": "Commercial",
    "DATE_MOD": 20180123
  },
  {
    "ID": "BH8",
    "NAME": "Union Bank Building",
    "OTHER_NAME": "",
    "ADDRESS": "128 Wellington Street",
    "ADDRESS_FR": "128, rue Wellington",
    "CITY": "Ottawa",
    "PROVINCE": "ON",
    "DESIGNATION": "Local",
    "DESIGNATION_SPECIFIC": "PartIV",
    "LAT": 45.42256075,
    "LONG": -75.69870579,
    "PC": "K1A 0A6",
    "TYPE": "Commercial",
    "DATE_MOD": 20180123
  },
  {
    "ID": "BH166",
    "NAME": "Odell House",
    "OTHER_NAME": "",
    "ADDRESS": "180 Waller Street",
    "ADDRESS_FR": "180, rue Waller",
    "CITY": "Ottawa",
    "PROVINCE": "ON",
    "DESIGNATION": "Local",
    "DESIGNATION_SPECIFIC": "PartIV",
    "LAT": 45.42266816,
    "LONG": -75.68618944,
    "PC": "K1N 9B9",
    "TYPE": "Residential",
    "DATE_MOD": 20180123
  },
  {
    "ID": "BH18",
    "NAME": "Trust Block/Scottish Ontario Chambers",
    "OTHER_NAME": "",
    "ADDRESS": "42-50 Sparks Street",
    "ADDRESS_FR": "42-50, rue Sparks",
    "CITY": "Ottawa",
    "PROVINCE": "ON",
    "DESIGNATION": "Local",
    "DESIGNATION_SPECIFIC": "PartIV",
    "LAT": 45.42296149,
    "LONG": -75.69567631,
    "PC": "K1P 5A8",
    "TYPE": "Commercial",
    "DATE_MOD": 20180123
  },
  {
    "ID": "BH22",
    "NAME": "Bell Block",
    "OTHER_NAME": "",
    "ADDRESS": "32-36 Elgin Street",
    "ADDRESS_FR": "32-36, rue Elgin",
    "CITY": "Ottawa",
    "PROVINCE": "ON",
    "DESIGNATION": "Local",
    "DESIGNATION_SPECIFIC": "PartIV",
    "LAT": 45.42310623,
    "LONG": -75.69560938,
    "PC": "K1P 5K6",
    "TYPE": "Commercial",
    "DATE_MOD": 20180123
  },
  {
    "ID": "BH28",
    "NAME": "National Arts Centre",
    "OTHER_NAME": "",
    "ADDRESS": "53 Elgin St",
    "ADDRESS_FR": "53, rue Elgin",
    "CITY": "Ottawa",
    "PROVINCE": "ON",
    "DESIGNATION": "National",
    "DESIGNATION_SPECIFIC": "NHS",
    "LAT": 45.423237,
    "LONG": -75.692228,
    "PC": "K1P 5W1",
    "TYPE": "Institutional",
    "DATE_MOD": 20180123
  },
  {
    "ID": "BH23",
    "NAME": "Central Chambers",
    "OTHER_NAME": "",
    "ADDRESS": "38-54 Elgin Street",
    "ADDRESS_FR": "38-54, rue Elgin",
    "CITY": "Ottawa",
    "PROVINCE": "ON",
    "DESIGNATION": "Local",
    "DESIGNATION_SPECIFIC": "PartIV",
    "LAT": 45.42324583,
    "LONG": -75.69586213,
    "PC": "K1P 5K6",
    "TYPE": "Institutional",
    "DATE_MOD": 20180123
  },
  {
    "ID": "BH16",
    "NAME": "Central Chambers",
    "OTHER_NAME": "",
    "ADDRESS": "40 Elgin St",
    "ADDRESS_FR": "40, rue Elgin",
    "CITY": "Ottawa",
    "PROVINCE": "ON",
    "DESIGNATION": "National",
    "DESIGNATION_SPECIFIC": "NHS",
    "LAT": 45.4234838,
    "LONG": -75.6955176,
    "PC": "K1P 1C7",
    "TYPE": "Institutional",
    "DATE_MOD": 20180123
  },
  {
    "ID": "BH15",
    "NAME": "Confederation Square",
    "OTHER_NAME": "",
    "ADDRESS": "2 Wellington St",
    "ADDRESS_FR": "2, rue Wellington",
    "CITY": "Ottawa",
    "PROVINCE": "ON",
    "DESIGNATION": "National",
    "DESIGNATION_SPECIFIC": "NHS",
    "LAT": 45.4239,
    "LONG": -75.69543,
    "PC": "K1P",
    "TYPE": "Institutional",
    "DATE_MOD": 20180123
  },
  {
    "ID": "BH92",
    "NAME": "Union Station",
    "OTHER_NAME": "",
    "ADDRESS": "2 Rideau Street",
    "ADDRESS_FR": "2, rue Rideau",
    "CITY": "Ottawa",
    "PROVINCE": "ON",
    "DESIGNATION": "Local",
    "DESIGNATION_SPECIFIC": "PartIV",
    "LAT": 45.42453997,
    "LONG": -75.69339273,
    "PC": "K1N 8X5",
    "TYPE": "Institutional",
    "DATE_MOD": 20180123
  },
  {
    "ID": "BH76",
    "NAME": "Sullivan House",
    "OTHER_NAME": "",
    "ADDRESS": "346 Somerset Street East",
    "ADDRESS_FR": "346, rue Somerset Est",
    "CITY": "Ottawa",
    "PROVINCE": "ON",
    "DESIGNATION": "Local",
    "DESIGNATION_SPECIFIC": "PartIV",
    "LAT": 45.42485178,
    "LONG": -75.67297504,
    "PC": "K2P 1T8",
    "TYPE": "Residential",
    "DATE_MOD": 20180123
  },
  {
    "ID": "BH10",
    "NAME": "Public Grounds of the Parliament Buildings",
    "OTHER_NAME": "",
    "ADDRESS": "1 Wellington St",
    "ADDRESS_FR": "1, rue Wellington",
    "CITY": "Ottawa",
    "PROVINCE": "ON",
    "DESIGNATION": "National",
    "DESIGNATION_SPECIFIC": "NHS",
    "LAT": 45.4248713,
    "LONG": -75.6997061,
    "PC": "K1A 0A6",
    "TYPE": "Other",
    "DATE_MOD": 20180123
  },
  {
    "ID": "BH9",
    "NAME": "Parliament Buildings",
    "OTHER_NAME": "",
    "ADDRESS": "1 Wellington St",
    "ADDRESS_FR": "1, rue Wellington",
    "CITY": "Ottawa",
    "PROVINCE": "ON",
    "DESIGNATION": "National",
    "DESIGNATION_SPECIFIC": "NHS",
    "LAT": 45.4248713,
    "LONG": -75.6997061,
    "PC": "K1A 0A6",
    "TYPE": "Institutional",
    "DATE_MOD": 20180123
  },
  {
    "ID": "BH93",
    "NAME": "Registry Office",
    "OTHER_NAME": "",
    "ADDRESS": "70 Nicholas Street",
    "ADDRESS_FR": "70, rue Nicholas",
    "CITY": "Ottawa",
    "PROVINCE": "ON",
    "DESIGNATION": "Local",
    "DESIGNATION_SPECIFIC": "PartIV",
    "LAT": 45.42492305,
    "LONG": -75.68937633,
    "PC": "K1N 1E7",
    "TYPE": "Institutional",
    "DATE_MOD": 20180123
  },
  {
    "ID": "BH158",
    "NAME": "Mitron House",
    "OTHER_NAME": "",
    "ADDRESS": "62 Sweetland Avenue",
    "ADDRESS_FR": "62, av Sweetland",
    "CITY": "Ottawa",
    "PROVINCE": "ON",
    "DESIGNATION": "Local",
    "DESIGNATION_SPECIFIC": "PartIV",
    "LAT": 45.42493731,
    "LONG": -75.67913116,
    "PC": "K1N 7T6",
    "TYPE": "Residential",
    "DATE_MOD": 20180123
  },
  {
    "ID": "BH126",
    "NAME": "County Registry Office",
    "OTHER_NAME": "",
    "ADDRESS": "22 Daly Avenue",
    "ADDRESS_FR": "22, av Daly",
    "CITY": "Ottawa",
    "PROVINCE": "ON",
    "DESIGNATION": "Local",
    "DESIGNATION_SPECIFIC": "PartIV",
    "LAT": 45.4249602,
    "LONG": -75.68928563,
    "PC": "K1N 6E6",
    "TYPE": "Institutional",
    "DATE_MOD": 20180123
  },
  {
    "ID": "BH151",
    "NAME": "Carleton County Jail",
    "OTHER_NAME": "",
    "ADDRESS": "75-77 Nicholas Street",
    "ADDRESS_FR": "75-77, rue Nicholas",
    "CITY": "Ottawa",
    "PROVINCE": "ON",
    "DESIGNATION": "Local",
    "DESIGNATION_SPECIFIC": "PartIV",
    "LAT": 45.42509283,
    "LONG": -75.68846537,
    "PC": "K1N 7B9",
    "TYPE": "Institutional",
    "DATE_MOD": 20180123
  },
  {
    "ID": "BH164",
    "NAME": "Chateau Laurier",
    "OTHER_NAME": "",
    "ADDRESS": "1 Rideau Street",
    "ADDRESS_FR": "1, rue Rideau",
    "CITY": "Ottawa",
    "PROVINCE": "ON",
    "DESIGNATION": "Local,National",
    "DESIGNATION_SPECIFIC": "PartIV,NHS",
    "LAT": 45.4251527,
    "LONG": -75.6945097,
    "PC": "K1N 8S7",
    "TYPE": "Commercial",
    "DATE_MOD": 20180123
  },
  {
    "ID": "BH175",
    "NAME": "Carleton County Court House",
    "OTHER_NAME": "",
    "ADDRESS": "2 Daly Avenue",
    "ADDRESS_FR": "2, av Daly",
    "CITY": "Ottawa",
    "PROVINCE": "ON",
    "DESIGNATION": "Local",
    "DESIGNATION_SPECIFIC": "PartIV",
    "LAT": 45.42538734,
    "LONG": -75.68874829,
    "PC": "K1N 9M9",
    "TYPE": "Institutional",
    "DATE_MOD": 20180123
  },
  {
    "ID": "BH169",
    "NAME": "Transportation Building",
    "OTHER_NAME": "",
    "ADDRESS": "10 Rideau Street",
    "ADDRESS_FR": "10, rue Rideau",
    "CITY": "Ottawa",
    "PROVINCE": "ON",
    "DESIGNATION": "Local",
    "DESIGNATION_SPECIFIC": "PartIV",
    "LAT": 45.42571091,
    "LONG": -75.69200827,
    "PC": "K1N 9J1",
    "TYPE": "Institutional",
    "DATE_MOD": 20180123
  },
  {
    "ID": "BH125",
    "NAME": "Albion Hotel",
    "OTHER_NAME": "",
    "ADDRESS": "1 Daly Avenue",
    "ADDRESS_FR": "1, av Daly",
    "CITY": "Ottawa",
    "PROVINCE": "ON",
    "DESIGNATION": "Local",
    "DESIGNATION_SPECIFIC": "PartIV",
    "LAT": 45.42576021,
    "LONG": -75.68912163,
    "PC": "K1N 6E6",
    "TYPE": "Commercial",
    "DATE_MOD": 20180123
  },
  {
    "ID": "BH17",
    "NAME": "Rideau Canal",
    "OTHER_NAME": "",
    "ADDRESS": "1 Canal Ln",
    "ADDRESS_FR": "1, rle Canal",
    "CITY": "Ottawa",
    "PROVINCE": "ON",
    "DESIGNATION": "National,International",
    "DESIGNATION_SPECIFIC": "NHS,UNESCO",
    "LAT": 45.4258614,
    "LONG": -75.6976729,
    "PC": "K1P 1L1",
    "TYPE": "Other",
    "DATE_MOD": 20180123
  },
  {
    "ID": "BH159",
    "NAME": "Maison Simard",
    "OTHER_NAME": "",
    "ADDRESS": "31 Sweetland Avenue",
    "ADDRESS_FR": "31, av Sweetland",
    "CITY": "Ottawa",
    "PROVINCE": "ON",
    "DESIGNATION": "Local",
    "DESIGNATION_SPECIFIC": "PartIV",
    "LAT": 45.42586536,
    "LONG": -75.67913596,
    "PC": "K1N 7T7",
    "TYPE": "Residential",
    "DATE_MOD": 20180123
  },
  {
    "ID": "BH141",
    "NAME": "St. Paul's Evangelical Lutheran Church",
    "OTHER_NAME": "",
    "ADDRESS": "208-210 Wilbrod Street",
    "ADDRESS_FR": "208-210, rue Wilbrod",
    "CITY": "Ottawa",
    "PROVINCE": "ON",
    "DESIGNATION": "Local",
    "DESIGNATION_SPECIFIC": "PartIV",
    "LAT": 45.4259786,
    "LONG": -75.6837139,
    "PC": "K1N 6L5",
    "TYPE": "Institutional",
    "DATE_MOD": 20180123
  },
  {
    "ID": "BH86",
    "NAME": "Reagan House",
    "OTHER_NAME": "",
    "ADDRESS": "66-68 Stewart Street",
    "ADDRESS_FR": "66-68, rue Stewart",
    "CITY": "Ottawa",
    "PROVINCE": "ON",
    "DESIGNATION": "Local",
    "DESIGNATION_SPECIFIC": "PartIV",
    "LAT": 45.42622972,
    "LONG": -75.68515136,
    "PC": "K1N 6J1",
    "TYPE": "Residential",
    "DATE_MOD": 20180123
  },
  {
    "ID": "BH171",
    "NAME": "Rideau Hotel",
    "OTHER_NAME": "",
    "ADDRESS": "91-95 Rideau Street",
    "ADDRESS_FR": "91-95, rue Rideau",
    "CITY": "Ottawa",
    "PROVINCE": "ON",
    "DESIGNATION": "Local",
    "DESIGNATION_SPECIFIC": "PartIV",
    "LAT": 45.42623706,
    "LONG": -75.6927548,
    "PC": "K1N 9J1",
    "TYPE": "Commercial",
    "DATE_MOD": 20180123
  },
  {
    "ID": "BH97",
    "NAME": "Connaught Building",
    "OTHER_NAME": "",
    "ADDRESS": "550 Sussex Dr",
    "ADDRESS_FR": "550, prom Sussex",
    "CITY": "Ottawa",
    "PROVINCE": "ON",
    "DESIGNATION": "National",
    "DESIGNATION_SPECIFIC": "NHS",
    "LAT": 45.4262905,
    "LONG": -75.6940203,
    "PC": "K1N 1K4",
    "TYPE": "Institutional",
    "DATE_MOD": 20180123
  },
  {
    "ID": "BH143",
    "NAME": "Dufresne House",
    "OTHER_NAME": "",
    "ADDRESS": "245 Laurier Ave E",
    "ADDRESS_FR": "245, av Laurier Est",
    "CITY": "Ottawa",
    "PROVINCE": "ON",
    "DESIGNATION": "Local",
    "DESIGNATION_SPECIFIC": "PartIV",
    "LAT": 45.42633428,
    "LONG": -75.68105114,
    "PC": "K1N 6P7",
    "TYPE": "Residential",
    "DATE_MOD": 20180123
  },
  {
    "ID": "BH88",
    "NAME": "Maison C�t�",
    "OTHER_NAME": "",
    "ADDRESS": "213 Wilbrod Street",
    "ADDRESS_FR": "213, rue Wilbrod",
    "CITY": "Ottawa",
    "PROVINCE": "ON",
    "DESIGNATION": "Local",
    "DESIGNATION_SPECIFIC": "PartIV",
    "LAT": 45.42636394,
    "LONG": -75.68404638,
    "PC": "K1N 6L4",
    "TYPE": "Residential",
    "DATE_MOD": 20180123
  },
  {
    "ID": "BH251",
    "NAME": "Former St. Augustine's Church",
    "OTHER_NAME": "",
    "ADDRESS": "100 Huxley Street",
    "ADDRESS_FR": "100, rue Huxley",
    "CITY": "Ottawa",
    "PROVINCE": "ON",
    "DESIGNATION": "Local",
    "DESIGNATION_SPECIFIC": "PartIV",
    "LAT": 45.42639389,
    "LONG": -76.2556564,
    "PC": "K0A 1X0",
    "TYPE": "Institutional",
    "DATE_MOD": 20180123
  },
  {
    "ID": "BH138",
    "NAME": "84-86 Stewart Street",
    "OTHER_NAME": "",
    "ADDRESS": "84-86 Stewart Street",
    "ADDRESS_FR": "84-86, rue Stewart",
    "CITY": "Ottawa",
    "PROVINCE": "ON",
    "DESIGNATION": "Local",
    "DESIGNATION_SPECIFIC": "PartIV",
    "LAT": 45.42641494,
    "LONG": -75.68471118,
    "PC": "K1N 6J1",
    "TYPE": "Residential",
    "DATE_MOD": 20180123
  },
  {
    "ID": "BH124",
    "NAME": "Union Mission Building",
    "OTHER_NAME": "",
    "ADDRESS": "47-49 Daly Avenue",
    "ADDRESS_FR": "47-49, av Daly",
    "CITY": "Ottawa",
    "PROVINCE": "ON",
    "DESIGNATION": "Local",
    "DESIGNATION_SPECIFIC": "PartIV",
    "LAT": 45.42643795,
    "LONG": -75.68779926,
    "PC": "K1N 6E3",
    "TYPE": "Residential",
    "DATE_MOD": 20180123
  },
  {
    "ID": "BH170",
    "NAME": "89 Rideau Street",
    "OTHER_NAME": "",
    "ADDRESS": "89 Rideau Street",
    "ADDRESS_FR": "89, rue Rideau",
    "CITY": "Ottawa",
    "PROVINCE": "ON",
    "DESIGNATION": "Local",
    "DESIGNATION_SPECIFIC": "PartIV",
    "LAT": 45.42651396,
    "LONG": -75.69211882,
    "PC": "K1N 9J1",
    "TYPE": "Commercial",
    "DATE_MOD": 20180123
  },
  {
    "ID": "BH95",
    "NAME": "Former Geological Survey of Canada Building",
    "OTHER_NAME": "",
    "ADDRESS": "541 Sussex Drive",
    "ADDRESS_FR": "541, prom Sussex",
    "CITY": "Ottawa",
    "PROVINCE": "ON",
    "DESIGNATION": "National",
    "DESIGNATION_SPECIFIC": "NHS",
    "LAT": 45.4265143,
    "LONG": -75.6940399,
    "PC": "K1N 1K2",
    "TYPE": "Institutional",
    "DATE_MOD": 20180123
  },
  {
    "ID": "BH172",
    "NAME": "101 Rideau Street",
    "OTHER_NAME": "",
    "ADDRESS": "101 Rideau Street",
    "ADDRESS_FR": "101, rue Rideau",
    "CITY": "Ottawa",
    "PROVINCE": "ON",
    "DESIGNATION": "Local",
    "DESIGNATION_SPECIFIC": "PartIV",
    "LAT": 45.42655034,
    "LONG": -75.6916402,
    "PC": "K1N 9J1",
    "TYPE": "Commercial",
    "DATE_MOD": 20180123
  },
  {
    "ID": "BH137",
    "NAME": "Jarvis House",
    "OTHER_NAME": "",
    "ADDRESS": "65 Stewart Street",
    "ADDRESS_FR": "65, rue Stewart",
    "CITY": "Ottawa",
    "PROVINCE": "ON",
    "DESIGNATION": "Local",
    "DESIGNATION_SPECIFIC": "PartIV",
    "LAT": 45.42658729,
    "LONG": -75.68551172,
    "PC": "K1N 6H9",
    "TYPE": "Residential",
    "DATE_MOD": 20180123
  },
  {
    "ID": "BH173",
    "NAME": "Featherstone Building",
    "OTHER_NAME": "",
    "ADDRESS": "103-105 Rideau Street",
    "ADDRESS_FR": "103-105, rue Rideau",
    "CITY": "Ottawa",
    "PROVINCE": "ON",
    "DESIGNATION": "Local",
    "DESIGNATION_SPECIFIC": "PartIV",
    "LAT": 45.42660352,
    "LONG": -75.6915304,
    "PC": "K1N 9J1",
    "TYPE": "Commercial",
    "DATE_MOD": 20180123
  },
  {
    "ID": "BH120",
    "NAME": "The Atwood",
    "OTHER_NAME": "",
    "ADDRESS": "97-99 Rideau Street",
    "ADDRESS_FR": "97-99, rue Rideau",
    "CITY": "Ottawa",
    "PROVINCE": "ON",
    "DESIGNATION": "Local",
    "DESIGNATION_SPECIFIC": "PartIV",
    "LAT": 45.42664006,
    "LONG": -75.6918973,
    "PC": "K1N 5W8",
    "TYPE": "Commercial",
    "DATE_MOD": 20180123
  },
  {
    "ID": "BH154",
    "NAME": "St. Paul's Eastern United Church",
    "OTHER_NAME": "473 Cumberland Street",
    "ADDRESS": "90 Daly Avenue",
    "ADDRESS_FR": "90, av Daly",
    "CITY": "Ottawa",
    "PROVINCE": "ON",
    "DESIGNATION": "Local",
    "DESIGNATION_SPECIFIC": "PartIV",
    "LAT": 45.42664774,
    "LONG": -75.68611079,
    "PC": "K1N 7K1",
    "TYPE": "Institutional",
    "DATE_MOD": 20180123
  },
  {
    "ID": "BH174",
    "NAME": "Robinson-Birkett Building",
    "OTHER_NAME": "",
    "ADDRESS": "107-115 Rideau Street",
    "ADDRESS_FR": "107-115, rue Rideau",
    "CITY": "Ottawa",
    "PROVINCE": "ON",
    "DESIGNATION": "Local",
    "DESIGNATION_SPECIFIC": "PartIV",
    "LAT": 45.42664844,
    "LONG": -75.6914266,
    "PC": "K1N 9J1",
    "TYPE": "Commercial",
    "DATE_MOD": 20180123
  },
  {
    "ID": "BH96",
    "NAME": "Connaught Building",
    "OTHER_NAME": "",
    "ADDRESS": "525 MacKenzie Ave",
    "ADDRESS_FR": "525, av MacKenzie",
    "CITY": "Ottawa",
    "PROVINCE": "ON",
    "DESIGNATION": "Local",
    "DESIGNATION_SPECIFIC": "PartIV",
    "LAT": 45.4266764,
    "LONG": -75.69481395,
    "PC": "K1N 1K4",
    "TYPE": "Institutional",
    "DATE_MOD": 20180123
  },
  {
    "ID": "BH144",
    "NAME": "Goodwin House",
    "OTHER_NAME": "",
    "ADDRESS": "312 Laurier Ave E",
    "ADDRESS_FR": "312, av Laurier Est",
    "CITY": "Ottawa",
    "PROVINCE": "ON",
    "DESIGNATION": "Local",
    "DESIGNATION_SPECIFIC": "PartIV",
    "LAT": 45.42672308,
    "LONG": -75.67848825,
    "PC": "K1N 6P8",
    "TYPE": "Residential",
    "DATE_MOD": 20180123
  },
  {
    "ID": "BH128",
    "NAME": "Varin Row",
    "OTHER_NAME": "",
    "ADDRESS": "106-110 Daly Avenue",
    "ADDRESS_FR": "106-110, av Daly",
    "CITY": "Ottawa",
    "PROVINCE": "ON",
    "DESIGNATION": "Local",
    "DESIGNATION_SPECIFIC": "PartIV",
    "LAT": 45.42687622,
    "LONG": -75.68574845,
    "PC": "K1N 6E7",
    "TYPE": "Residential",
    "DATE_MOD": 20180123
  },
  {
    "ID": "BH129",
    "NAME": "Lyon House",
    "OTHER_NAME": "",
    "ADDRESS": "112 Daly Avenue",
    "ADDRESS_FR": "112, av Daly",
    "CITY": "Ottawa",
    "PROVINCE": "ON",
    "DESIGNATION": "Local",
    "DESIGNATION_SPECIFIC": "PartIV",
    "LAT": 45.42694684,
    "LONG": -75.68556477,
    "PC": "K1N 6E7",
    "TYPE": "Residential",
    "DATE_MOD": 20180123
  },
  {
    "ID": "BH168",
    "NAME": "Ottawa Marble and Granite Works",
    "OTHER_NAME": "",
    "ADDRESS": "14 Waller Street",
    "ADDRESS_FR": "14, rue Waller",
    "CITY": "Ottawa",
    "PROVINCE": "ON",
    "DESIGNATION": "Local",
    "DESIGNATION_SPECIFIC": "PartIV",
    "LAT": 45.42702924,
    "LONG": -75.68875206,
    "PC": "K1N 9C4",
    "TYPE": "Industrial",
    "DATE_MOD": 20180123
  },
  {
    "ID": "BH118",
    "NAME": "Grand Central Hotel",
    "OTHER_NAME": "63-65 William Street",
    "ADDRESS": "74 George Street",
    "ADDRESS_FR": "74, rue George",
    "CITY": "Ottawa",
    "PROVINCE": "ON",
    "DESIGNATION": "Local",
    "DESIGNATION_SPECIFIC": "PartIV",
    "LAT": 45.42708342,
    "LONG": -75.6913391,
    "PC": "K1N 5W1",
    "TYPE": "Commercial",
    "DATE_MOD": 20180123
  },
  {
    "ID": "BH87",
    "NAME": "White House",
    "OTHER_NAME": "",
    "ADDRESS": "132 Stewart Street",
    "ADDRESS_FR": "132, rue Stewart",
    "CITY": "Ottawa",
    "PROVINCE": "ON",
    "DESIGNATION": "Local",
    "DESIGNATION_SPECIFIC": "PartIV",
    "LAT": 45.42709308,
    "LONG": -75.68311822,
    "PC": "K1N 6J5",
    "TYPE": "Residential",
    "DATE_MOD": 20180123
  },
  {
    "ID": "BH119",
    "NAME": "Clegg-Feller Building",
    "OTHER_NAME": "",
    "ADDRESS": "155-159 Rideau Street",
    "ADDRESS_FR": "155-159, rue Rideau",
    "CITY": "Ottawa",
    "PROVINCE": "ON",
    "DESIGNATION": "Local",
    "DESIGNATION_SPECIFIC": "PartIV",
    "LAT": 45.42725708,
    "LONG": -75.69006165,
    "PC": "K1N 5W2",
    "TYPE": "Commercial",
    "DATE_MOD": 20180123
  },
  {
    "ID": "BH89",
    "NAME": "273 Wilbrod Street",
    "OTHER_NAME": "",
    "ADDRESS": "273 Wilbrod Street",
    "ADDRESS_FR": "273, rue Wilbrod",
    "CITY": "Ottawa",
    "PROVINCE": "ON",
    "DESIGNATION": "Local",
    "DESIGNATION_SPECIFIC": "PartIV",
    "LAT": 45.42728765,
    "LONG": -75.68192168,
    "PC": "K1N 6M3",
    "TYPE": "Residential",
    "DATE_MOD": 20180123
  },
  {
    "ID": "BH115",
    "NAME": "Institut canadien-fran�ais d�Ottawa",
    "OTHER_NAME": "",
    "ADDRESS": "18 York Street",
    "ADDRESS_FR": "18, rue York",
    "CITY": "Ottawa",
    "PROVINCE": "ON",
    "DESIGNATION": "Local",
    "DESIGNATION_SPECIFIC": "PartIV",
    "LAT": 45.42736116,
    "LONG": -75.69407263,
    "PC": "K1N 5S6",
    "TYPE": "Institutional",
    "DATE_MOD": 20180123
  },
  {
    "ID": "BH91",
    "NAME": "All Saints' Anglican Church",
    "OTHER_NAME": "",
    "ADDRESS": "317 Chapel Street",
    "ADDRESS_FR": "317, rue Chapel",
    "CITY": "Ottawa",
    "PROVINCE": "ON",
    "DESIGNATION": "Local",
    "DESIGNATION_SPECIFIC": "PartIV",
    "LAT": 45.42736989,
    "LONG": -75.67732541,
    "PC": "K1N 7Z2",
    "TYPE": "Institutional",
    "DATE_MOD": 20180123
  },
  {
    "ID": "BH145",
    "NAME": "Laurier House",
    "OTHER_NAME": "",
    "ADDRESS": "335 Laurier Ave E",
    "ADDRESS_FR": "335, av Laurier Est",
    "CITY": "Ottawa",
    "PROVINCE": "ON",
    "DESIGNATION": "Local,National",
    "DESIGNATION_SPECIFIC": "PartIV,NHS",
    "LAT": 45.4273876,
    "LONG": -75.6782288,
    "PC": "K1N 6R4",
    "TYPE": "Residential",
    "DATE_MOD": 20180123
  },
  {
    "ID": "BH121",
    "NAME": "183-185 Rideau Street",
    "OTHER_NAME": "",
    "ADDRESS": "183-185 Rideau Street",
    "ADDRESS_FR": "183-185, rue Rideau",
    "CITY": "Ottawa",
    "PROVINCE": "ON",
    "DESIGNATION": "Local",
    "DESIGNATION_SPECIFIC": "PartIV",
    "LAT": 45.42742,
    "LONG": -75.68895,
    "PC": "K1N 5X8",
    "TYPE": "Commercial",
    "DATE_MOD": 20180123
  },
  {
    "ID": "BH127",
    "NAME": "St. Alban the Martyr Anglican Church",
    "OTHER_NAME": "",
    "ADDRESS": "125 Daly Avenue",
    "ADDRESS_FR": "125, av Daly",
    "CITY": "Ottawa",
    "PROVINCE": "ON",
    "DESIGNATION": "Local",
    "DESIGNATION_SPECIFIC": "PartIV",
    "LAT": 45.42748688,
    "LONG": -75.68520077,
    "PC": "K1N 6E6",
    "TYPE": "Institutional",
    "DATE_MOD": 20180123
  },
  {
    "ID": "BH161",
    "NAME": "5 Blackburn Ave",
    "OTHER_NAME": "",
    "ADDRESS": "5 Blackburn Ave",
    "ADDRESS_FR": "5, av Blackburn",
    "CITY": "Ottawa",
    "PROVINCE": "ON",
    "DESIGNATION": "Local",
    "DESIGNATION_SPECIFIC": "PartIV",
    "LAT": 45.4276064,
    "LONG": -75.67667543,
    "PC": "K1N 8A2",
    "TYPE": "Residential",
    "DATE_MOD": 20180123
  },
  {
    "ID": "BH167",
    "NAME": "Byward Market Building",
    "OTHER_NAME": "55 By Ward Market Square",
    "ADDRESS": "50 York Street",
    "ADDRESS_FR": "50, rue York",
    "CITY": "Ottawa",
    "PROVINCE": "ON",
    "DESIGNATION": "Local",
    "DESIGNATION_SPECIFIC": "PartIV",
    "LAT": 45.4276282,
    "LONG": -75.6924392,
    "PC": "K1N 9C3",
    "TYPE": "Commercial",
    "DATE_MOD": 20180123
  },
  {
    "ID": "BH85",
    "NAME": "Besserer House",
    "OTHER_NAME": "",
    "ADDRESS": "149 Daly Avenue",
    "ADDRESS_FR": "149, av Daly",
    "CITY": "Ottawa",
    "PROVINCE": "ON",
    "DESIGNATION": "Local",
    "DESIGNATION_SPECIFIC": "PartIV",
    "LAT": 45.42776402,
    "LONG": -75.68469786,
    "PC": "K1N 6E8",
    "TYPE": "Residential",
    "DATE_MOD": 20180123
  },
  {
    "ID": "BH139",
    "NAME": "Ross House",
    "OTHER_NAME": "",
    "ADDRESS": "188-192 Stewart Street",
    "ADDRESS_FR": "188-192, rue Stewart",
    "CITY": "Ottawa",
    "PROVINCE": "ON",
    "DESIGNATION": "Local",
    "DESIGNATION_SPECIFIC": "PartIV",
    "LAT": 45.42789577,
    "LONG": -75.68120865,
    "PC": "K1N 6J9",
    "TYPE": "Residential",
    "DATE_MOD": 20180123
  },
  {
    "ID": "BH130",
    "NAME": "Allan House",
    "OTHER_NAME": "",
    "ADDRESS": "192 Daly Avenue",
    "ADDRESS_FR": "192, av Daly",
    "CITY": "Ottawa",
    "PROVINCE": "ON",
    "DESIGNATION": "Local",
    "DESIGNATION_SPECIFIC": "PartIV",
    "LAT": 45.42793251,
    "LONG": -75.6830964,
    "PC": "K1N 6E9",
    "TYPE": "Residential",
    "DATE_MOD": 20180123
  },
  {
    "ID": "BH146",
    "NAME": "Strathcona",
    "OTHER_NAME": "",
    "ADDRESS": "404 Laurier Ave E",
    "ADDRESS_FR": "404, av Laurier Est",
    "CITY": "Ottawa",
    "PROVINCE": "ON",
    "DESIGNATION": "Local",
    "DESIGNATION_SPECIFIC": "PartIV",
    "LAT": 45.42799767,
    "LONG": -75.67560011,
    "PC": "K1N 6R4",
    "TYPE": "Residential",
    "DATE_MOD": 20180123
  },
  {
    "ID": "BH117",
    "NAME": "Borbridge Building",
    "OTHER_NAME": "",
    "ADDRESS": "54-60 York Street",
    "ADDRESS_FR": "54-60, rue York",
    "CITY": "Ottawa",
    "PROVINCE": "ON",
    "DESIGNATION": "Local",
    "DESIGNATION_SPECIFIC": "PartIV",
    "LAT": 45.4281228,
    "LONG": -75.69224187,
    "PC": "K1N 5T1",
    "TYPE": "Commercial",
    "DATE_MOD": 20180123
  },
  {
    "ID": "BH165",
    "NAME": "Shouldice Hotel",
    "OTHER_NAME": "",
    "ADDRESS": "62-66 York Street",
    "ADDRESS_FR": "62-66, rue York",
    "CITY": "Ottawa",
    "PROVINCE": "ON",
    "DESIGNATION": "Local",
    "DESIGNATION_SPECIFIC": "PartIV",
    "LAT": 45.4281642,
    "LONG": -75.69209053,
    "PC": "K1N 8Y3",
    "TYPE": "Commercial",
    "DATE_MOD": 20180123
  },
  {
    "ID": "BH116",
    "NAME": "H�tel St-Louis",
    "OTHER_NAME": "",
    "ADDRESS": "39-41 York Street",
    "ADDRESS_FR": "39-41, rue York",
    "CITY": "Ottawa",
    "PROVINCE": "ON",
    "DESIGNATION": "Local",
    "DESIGNATION_SPECIFIC": "PartIV",
    "LAT": 45.4281892,
    "LONG": -75.69373781,
    "PC": "K1N 5S7",
    "TYPE": "Commercial",
    "DATE_MOD": 20180123
  },
  {
    "ID": "BH131",
    "NAME": "Mcfarlane Terrace",
    "OTHER_NAME": "",
    "ADDRESS": "199-205 Daly Avenue",
    "ADDRESS_FR": "199-205, av Daly",
    "CITY": "Ottawa",
    "PROVINCE": "ON",
    "DESIGNATION": "Local",
    "DESIGNATION_SPECIFIC": "PartIV",
    "LAT": 45.42848424,
    "LONG": -75.68300885,
    "PC": "K1N 6G1",
    "TYPE": "Residential",
    "DATE_MOD": 20180123
  },
  {
    "ID": "BH147",
    "NAME": "Stadacona Hall",
    "OTHER_NAME": "",
    "ADDRESS": "395 Laurier Ave E",
    "ADDRESS_FR": "395, av Laurier Est",
    "CITY": "Ottawa",
    "PROVINCE": "ON",
    "DESIGNATION": "Local",
    "DESIGNATION_SPECIFIC": "PartIV",
    "LAT": 45.42852585,
    "LONG": -75.67636427,
    "PC": "K1N 6R5",
    "TYPE": "Residential",
    "DATE_MOD": 20180123
  },
  {
    "ID": "BH132",
    "NAME": "240 Daly Avenue",
    "OTHER_NAME": "",
    "ADDRESS": "240 Daly Avenue",
    "ADDRESS_FR": "240, av Daly",
    "CITY": "Ottawa",
    "PROVINCE": "ON",
    "DESIGNATION": "Local",
    "DESIGNATION_SPECIFIC": "PartIV",
    "LAT": 45.4285984,
    "LONG": -75.68148541,
    "PC": "K1N 6G2",
    "TYPE": "Residential",
    "DATE_MOD": 20180123
  },
  {
    "ID": "BH149",
    "NAME": "Graham-McGillvray Building",
    "OTHER_NAME": "",
    "ADDRESS": "419-421 Sussex Drive",
    "ADDRESS_FR": "419-421, prom Sussex",
    "CITY": "Ottawa",
    "PROVINCE": "ON",
    "DESIGNATION": "Local",
    "DESIGNATION_SPECIFIC": "PartIV",
    "LAT": 45.42905997,
    "LONG": -75.69616735,
    "PC": "K1N 7B1",
    "TYPE": "Commercial",
    "DATE_MOD": 20180123
  },
  {
    "ID": "BH106",
    "NAME": "Maison Flavien Rochon",
    "OTHER_NAME": "",
    "ADDRESS": "138 St. Patrick Street",
    "ADDRESS_FR": "138, rue St. Patrick",
    "CITY": "Ottawa",
    "PROVINCE": "ON",
    "DESIGNATION": "Local",
    "DESIGNATION_SPECIFIC": "PartIV",
    "LAT": 45.42922606,
    "LONG": -75.69591403,
    "PC": "K1N 5J8",
    "TYPE": "Residential",
    "DATE_MOD": 20180123
  },
  {
    "ID": "BH140",
    "NAME": "Grayburn House",
    "OTHER_NAME": "",
    "ADDRESS": "284-286 Stewart Street",
    "ADDRESS_FR": "284-286, rue Stewart",
    "CITY": "Ottawa",
    "PROVINCE": "ON",
    "DESIGNATION": "Local",
    "DESIGNATION_SPECIFIC": "PartIV",
    "LAT": 45.42929612,
    "LONG": -75.67785634,
    "PC": "K1N 6K4",
    "TYPE": "Residential",
    "DATE_MOD": 20180123
  },
  {
    "ID": "BH107",
    "NAME": "Maision Valade",
    "OTHER_NAME": "",
    "ADDRESS": "142-144 St. Patrick Street",
    "ADDRESS_FR": "142-144, rue St. Patrick",
    "CITY": "Ottawa",
    "PROVINCE": "ON",
    "DESIGNATION": "Local",
    "DESIGNATION_SPECIFIC": "PartIV",
    "LAT": 45.42939864,
    "LONG": -75.69585565,
    "PC": "K1N 5J8",
    "TYPE": "Residential",
    "DATE_MOD": 20180123
  },
  {
    "ID": "BH108",
    "NAME": "Maison Alphonse Rochon",
    "OTHER_NAME": "",
    "ADDRESS": "150 St. Patrick Street",
    "ADDRESS_FR": "150, rue St. Patrick",
    "CITY": "Ottawa",
    "PROVINCE": "ON",
    "DESIGNATION": "Local",
    "DESIGNATION_SPECIFIC": "PartIV",
    "LAT": 45.42947584,
    "LONG": -75.69546297,
    "PC": "K1N 5J8",
    "TYPE": "Residential",
    "DATE_MOD": 20180123
  },
  {
    "ID": "BH160",
    "NAME": "Plummer House",
    "OTHER_NAME": "",
    "ADDRESS": "229 Chapel Street",
    "ADDRESS_FR": "229, rue Chapel",
    "CITY": "Ottawa",
    "PROVINCE": "ON",
    "DESIGNATION": "Local",
    "DESIGNATION_SPECIFIC": "PartIV",
    "LAT": 45.42948792,
    "LONG": -75.67936493,
    "PC": "K1N 7Y6",
    "TYPE": "Residential",
    "DATE_MOD": 20180123
  },
  {
    "ID": "BH162",
    "NAME": "243 Augusta Street",
    "OTHER_NAME": "",
    "ADDRESS": "243 Augusta Street",
    "ADDRESS_FR": "243, rue Augusta",
    "CITY": "Ottawa",
    "PROVINCE": "ON",
    "DESIGNATION": "Local",
    "DESIGNATION_SPECIFIC": "PartIV",
    "LAT": 45.42950719,
    "LONG": -75.67738597,
    "PC": "K1N 8C6",
    "TYPE": "Residential",
    "DATE_MOD": 20180123
  },
  {
    "ID": "BH112",
    "NAME": "Martineau's Hotel",
    "OTHER_NAME": "",
    "ADDRESS": "47-61 Murray Street",
    "ADDRESS_FR": "47-61, rue Murray",
    "CITY": "Ottawa",
    "PROVINCE": "ON",
    "DESIGNATION": "Local",
    "DESIGNATION_SPECIFIC": "PartIV",
    "LAT": 45.42953182,
    "LONG": -75.6945862,
    "PC": "K1N 5M4",
    "TYPE": "Commercial",
    "DATE_MOD": 20180123
  },
  {
    "ID": "BH153",
    "NAME": "350-352 Cumberland Street",
    "OTHER_NAME": "",
    "ADDRESS": "350-352 Cumberland Street",
    "ADDRESS_FR": "350-352, rue Cumberland",
    "CITY": "Ottawa",
    "PROVINCE": "ON",
    "DESIGNATION": "Local",
    "DESIGNATION_SPECIFIC": "PartIV",
    "LAT": 45.42953796,
    "LONG": -75.6890322,
    "PC": "K1N 7J5",
    "TYPE": "Residential",
    "DATE_MOD": 20180123
  },
  {
    "ID": "BH150",
    "NAME": "Archbishop's Palace",
    "OTHER_NAME": "",
    "ADDRESS": "145 St. Patrick Street",
    "ADDRESS_FR": "145, rue St. Patrick",
    "CITY": "Ottawa",
    "PROVINCE": "ON",
    "DESIGNATION": "Local",
    "DESIGNATION_SPECIFIC": "PartIV",
    "LAT": 45.42977937,
    "LONG": -75.69590169,
    "PC": "K1N 7B2",
    "TYPE": "Residential",
    "DATE_MOD": 20180123
  },
  {
    "ID": "BH135",
    "NAME": "Patterson House",
    "OTHER_NAME": "",
    "ADDRESS": "336 Daly Avenue",
    "ADDRESS_FR": "336, av Daly",
    "CITY": "Ottawa",
    "PROVINCE": "ON",
    "DESIGNATION": "Local",
    "DESIGNATION_SPECIFIC": "PartIV",
    "LAT": 45.42982489,
    "LONG": -75.67835291,
    "PC": "K1N 6G7",
    "TYPE": "Residential",
    "DATE_MOD": 20180123
  },
  {
    "ID": "BH133",
    "NAME": "Winterholme",
    "OTHER_NAME": "",
    "ADDRESS": "309-311 Daly Avenue",
    "ADDRESS_FR": "309-311, av Daly",
    "CITY": "Ottawa",
    "PROVINCE": "ON",
    "DESIGNATION": "Local",
    "DESIGNATION_SPECIFIC": "PartIV",
    "LAT": 45.42990539,
    "LONG": -75.6796703,
    "PC": "K1N 6G6",
    "TYPE": "Residential",
    "DATE_MOD": 20180123
  },
  {
    "ID": "BH152",
    "NAME": "Brown Tenements",
    "OTHER_NAME": "",
    "ADDRESS": "153-161 York Street",
    "ADDRESS_FR": "153-162, rue York",
    "CITY": "Ottawa",
    "PROVINCE": "ON",
    "DESIGNATION": "Local",
    "DESIGNATION_SPECIFIC": "PartIV",
    "LAT": 45.42991558,
    "LONG": -75.68963203,
    "PC": "K1N 7J3",
    "TYPE": "Residential",
    "DATE_MOD": 20180123
  },
  {
    "ID": "BH113",
    "NAME": "89-91 Murray Street",
    "OTHER_NAME": "",
    "ADDRESS": "89-91 Murray Street",
    "ADDRESS_FR": "89-91, rue Murray",
    "CITY": "Ottawa",
    "PROVINCE": "ON",
    "DESIGNATION": "Local",
    "DESIGNATION_SPECIFIC": "PartIV",
    "LAT": 45.42995155,
    "LONG": -75.69360207,
    "PC": "K1N 5M5",
    "TYPE": "Residential",
    "DATE_MOD": 20180123
  },
  {
    "ID": "BH134",
    "NAME": "315 Daly Avenue",
    "OTHER_NAME": "",
    "ADDRESS": "315 Daly Avenue",
    "ADDRESS_FR": "315, av Daly",
    "CITY": "Ottawa",
    "PROVINCE": "ON",
    "DESIGNATION": "Local",
    "DESIGNATION_SPECIFIC": "PartIV",
    "LAT": 45.43006996,
    "LONG": -75.67927785,
    "PC": "K1N 6G6",
    "TYPE": "Residential",
    "DATE_MOD": 20180123
  },
  {
    "ID": "BH122",
    "NAME": "Rideau Branch Library",
    "OTHER_NAME": "",
    "ADDRESS": "377 Rideau Street",
    "ADDRESS_FR": "377, rue Rideau",
    "CITY": "Ottawa",
    "PROVINCE": "ON",
    "DESIGNATION": "Local",
    "DESIGNATION_SPECIFIC": "PartIV",
    "LAT": 45.43010379,
    "LONG": -75.68320979,
    "PC": "K1N 5Y6",
    "TYPE": "Institutional",
    "DATE_MOD": 20180123
  },
  {
    "ID": "BH109",
    "NAME": "R�sidence Brousseau",
    "OTHER_NAME": "",
    "ADDRESS": "204-210 St. Patrick Street",
    "ADDRESS_FR": "204-210, rue St. Patrick",
    "CITY": "Ottawa",
    "PROVINCE": "ON",
    "DESIGNATION": "Local",
    "DESIGNATION_SPECIFIC": "PartIV",
    "LAT": 45.43023839,
    "LONG": -75.69392089,
    "PC": "K1N 5K3",
    "TYPE": "Residential",
    "DATE_MOD": 20180123
  },
  {
    "ID": "BH142",
    "NAME": "Fleck House",
    "OTHER_NAME": "",
    "ADDRESS": "500 Wilbrod Street",
    "ADDRESS_FR": "500, rue Wilbrod",
    "CITY": "Ottawa",
    "PROVINCE": "ON",
    "DESIGNATION": "Local",
    "DESIGNATION_SPECIFIC": "PartIV",
    "LAT": 45.43031796,
    "LONG": -75.67334778,
    "PC": "K1N 6N2",
    "TYPE": "Residential",
    "DATE_MOD": 20180123
  },
  {
    "ID": "BH13",
    "NAME": "Former Archives Building",
    "OTHER_NAME": "",
    "ADDRESS": "330 Sussex Drive",
    "ADDRESS_FR": "330, prom Sussex",
    "CITY": "Ottawa",
    "PROVINCE": "ON",
    "DESIGNATION": "National",
    "DESIGNATION_SPECIFIC": "NHS",
    "LAT": 45.4304931,
    "LONG": -75.6988668,
    "PC": "K1A 0G8",
    "TYPE": "Institutional",
    "DATE_MOD": 20180123
  },
  {
    "ID": "BH148",
    "NAME": "Notre Dame Basilica",
    "OTHER_NAME": "",
    "ADDRESS": "385 Sussex Drive",
    "ADDRESS_FR": "385, prom Sussex",
    "CITY": "Ottawa",
    "PROVINCE": "ON",
    "DESIGNATION": "Local,National",
    "DESIGNATION_SPECIFIC": "PartIV,NHS",
    "LAT": 45.4305498,
    "LONG": -75.6976149,
    "PC": "K1N 7B1",
    "TYPE": "Institutional",
    "DATE_MOD": 20180123
  },
  {
    "ID": "BH136",
    "NAME": "Terrasse Philom�ne",
    "OTHER_NAME": "",
    "ADDRESS": "363-383 Daly Avenue",
    "ADDRESS_FR": "363-383, av Daly",
    "CITY": "Ottawa",
    "PROVINCE": "ON",
    "DESIGNATION": "Local",
    "DESIGNATION_SPECIFIC": "PartIV",
    "LAT": 45.43071341,
    "LONG": -75.67762909,
    "PC": "K1N 6G8",
    "TYPE": "Residential",
    "DATE_MOD": 20180123
  },
  {
    "ID": "BH157",
    "NAME": "Champagne Bath",
    "OTHER_NAME": "",
    "ADDRESS": "321 King Edward Ave",
    "ADDRESS_FR": "321, av King Edward",
    "CITY": "Ottawa",
    "PROVINCE": "ON",
    "DESIGNATION": "Local",
    "DESIGNATION_SPECIFIC": "PartIV",
    "LAT": 45.43072419,
    "LONG": -75.68660381,
    "PC": "K1N 7M5",
    "TYPE": "Institutional",
    "DATE_MOD": 20180123
  },
  {
    "ID": "BH114",
    "NAME": "�cole Guigues",
    "OTHER_NAME": "",
    "ADDRESS": "159 Murray Street",
    "ADDRESS_FR": "159, rue Murray",
    "CITY": "Ottawa",
    "PROVINCE": "ON",
    "DESIGNATION": "Local",
    "DESIGNATION_SPECIFIC": "PartIV",
    "LAT": 45.43091553,
    "LONG": -75.69133027,
    "PC": "K1N 5M7",
    "TYPE": "Institutional",
    "DATE_MOD": 20180123
  },
  {
    "ID": "BH84",
    "NAME": "Ewart House",
    "OTHER_NAME": "",
    "ADDRESS": "464 Besserer Street",
    "ADDRESS_FR": "464, rue Besserer",
    "CITY": "Ottawa",
    "PROVINCE": "ON",
    "DESIGNATION": "Local",
    "DESIGNATION_SPECIFIC": "PartIV",
    "LAT": 45.43093468,
    "LONG": -75.67786953,
    "PC": "K1N 6C3",
    "TYPE": "Residential",
    "DATE_MOD": 20180123
  },
  {
    "ID": "BH83",
    "NAME": "Beattie House",
    "OTHER_NAME": "",
    "ADDRESS": "451 Besserer Street",
    "ADDRESS_FR": "451, rue Besserer",
    "CITY": "Ottawa",
    "PROVINCE": "ON",
    "DESIGNATION": "Local",
    "DESIGNATION_SPECIFIC": "PartIV",
    "LAT": 45.4310847,
    "LONG": -75.6785393,
    "PC": "K1N 6C2",
    "TYPE": "Residential",
    "DATE_MOD": 20180123
  },
  {
    "ID": "BH82",
    "NAME": "Maison Br�l�",
    "OTHER_NAME": "",
    "ADDRESS": "288-290 ' St. Patrick Street",
    "ADDRESS_FR": "288-290 1/2, rue St. Patrick",
    "CITY": "Ottawa",
    "PROVINCE": "ON",
    "DESIGNATION": "Local",
    "DESIGNATION_SPECIFIC": "PartIV",
    "LAT": 45.43128259,
    "LONG": -75.69144561,
    "PC": "K1N 5K5",
    "TYPE": "Residential",
    "DATE_MOD": 20180123
  },
  {
    "ID": "BH110",
    "NAME": "St. Brigid's Church",
    "OTHER_NAME": "",
    "ADDRESS": "314 St. Patrick Street",
    "ADDRESS_FR": "314, rue St. Patrick",
    "CITY": "Ottawa",
    "PROVINCE": "ON",
    "DESIGNATION": "Local",
    "DESIGNATION_SPECIFIC": "PartIV",
    "LAT": 45.43141567,
    "LONG": -75.69063848,
    "PC": "K1N 5K4",
    "TYPE": "Institutional",
    "DATE_MOD": 20180123
  },
  {
    "ID": "BH14",
    "NAME": "Royal Canadian Mint",
    "OTHER_NAME": "",
    "ADDRESS": "320 Sussex Drive",
    "ADDRESS_FR": "320, prom Sussex",
    "CITY": "Ottawa",
    "PROVINCE": "ON",
    "DESIGNATION": "National",
    "DESIGNATION_SPECIFIC": "NHS",
    "LAT": 45.4315032,
    "LONG": -75.698693,
    "PC": "K1A 0G8",
    "TYPE": "Institutional",
    "DATE_MOD": 20180123
  },
  {
    "ID": "BH101",
    "NAME": "Maison M�re, Soeurs Grises de la Croix",
    "OTHER_NAME": "",
    "ADDRESS": "9 Bruyere Street",
    "ADDRESS_FR": "9, rue Bruyere",
    "CITY": "Ottawa",
    "PROVINCE": "ON",
    "DESIGNATION": "Local",
    "DESIGNATION_SPECIFIC": "PartIV",
    "LAT": 45.43217942,
    "LONG": -75.69697864,
    "PC": "K1N 5C9",
    "TYPE": "Institutional",
    "DATE_MOD": 20180123
  },
  {
    "ID": "BH103",
    "NAME": "Maison Joseph Archambault",
    "OTHER_NAME": "",
    "ADDRESS": "117 St. Andrew Street",
    "ADDRESS_FR": "117, rue St. Andrew",
    "CITY": "Ottawa",
    "PROVINCE": "ON",
    "DESIGNATION": "Local",
    "DESIGNATION_SPECIFIC": "PartIV",
    "LAT": 45.43218704,
    "LONG": -75.69446018,
    "PC": "K1N 5G1",
    "TYPE": "Residential",
    "DATE_MOD": 20180123
  },
  {
    "ID": "BH99",
    "NAME": "McCloy House",
    "OTHER_NAME": "",
    "ADDRESS": "42 Bolton Street",
    "ADDRESS_FR": "42, rue Bolton",
    "CITY": "Ottawa",
    "PROVINCE": "ON",
    "DESIGNATION": "Local",
    "DESIGNATION_SPECIFIC": "PartIV",
    "LAT": 45.43266789,
    "LONG": -75.6984944,
    "PC": "K1N 5A9",
    "TYPE": "Residential",
    "DATE_MOD": 20180123
  },
  {
    "ID": "BH104",
    "NAME": "Maison Foisy",
    "OTHER_NAME": "",
    "ADDRESS": "188 St. Andrew Street",
    "ADDRESS_FR": "188, rue St. Andrew",
    "CITY": "Ottawa",
    "PROVINCE": "ON",
    "DESIGNATION": "Local",
    "DESIGNATION_SPECIFIC": "PartIV",
    "LAT": 45.43275451,
    "LONG": -75.69195849,
    "PC": "K1N 5G4",
    "TYPE": "Residential",
    "DATE_MOD": 20180123
  },
  {
    "ID": "BH123",
    "NAME": "Wallis House",
    "OTHER_NAME": "",
    "ADDRESS": "589 Rideau Street",
    "ADDRESS_FR": "589, rue Rideau",
    "CITY": "Ottawa",
    "PROVINCE": "ON",
    "DESIGNATION": "Local",
    "DESIGNATION_SPECIFIC": "PartIV",
    "LAT": 45.43318248,
    "LONG": -75.67600026,
    "PC": "K1N 6A1",
    "TYPE": "Institutional",
    "DATE_MOD": 20180123
  },
  {
    "ID": "BH156",
    "NAME": "Green House",
    "OTHER_NAME": "",
    "ADDRESS": "174-176 KING EDWARD  AVE",
    "ADDRESS_FR": "174-176, av King Edward",
    "CITY": "Ottawa",
    "PROVINCE": "ON",
    "DESIGNATION": "Local",
    "DESIGNATION_SPECIFIC": "PartIV",
    "LAT": 45.43353473,
    "LONG": -75.69020141,
    "PC": "K1N 7L5",
    "TYPE": "Residential",
    "DATE_MOD": 20180123
  },
  {
    "ID": "BH105",
    "NAME": "Maison Odillon Archambault",
    "OTHER_NAME": "",
    "ADDRESS": "221-223 St. Andrew Street",
    "ADDRESS_FR": "221-223, rue St. Andrew",
    "CITY": "Ottawa",
    "PROVINCE": "ON",
    "DESIGNATION": "Local",
    "DESIGNATION_SPECIFIC": "PartIV",
    "LAT": 45.4336621,
    "LONG": -75.69105755,
    "PC": "K1N 5G5",
    "TYPE": "Residential",
    "DATE_MOD": 20180123
  },
  {
    "ID": "BH155",
    "NAME": "Maision Pinard",
    "OTHER_NAME": "",
    "ADDRESS": "175-177 King Edward Ave",
    "ADDRESS_FR": "175-177, av King Edward",
    "CITY": "Ottawa",
    "PROVINCE": "ON",
    "DESIGNATION": "Local",
    "DESIGNATION_SPECIFIC": "PartIV",
    "LAT": 45.43374394,
    "LONG": -75.68961099,
    "PC": "K1N 7L4",
    "TYPE": "Residential",
    "DATE_MOD": 20180123
  },
  {
    "ID": "BH90",
    "NAME": "Maison Rathier",
    "OTHER_NAME": "",
    "ADDRESS": "193-195 Cumberland Street",
    "ADDRESS_FR": "193-195, rue Cumberland",
    "CITY": "Ottawa",
    "PROVINCE": "ON",
    "DESIGNATION": "Local",
    "DESIGNATION_SPECIFIC": "PartIV",
    "LAT": 45.43396403,
    "LONG": -75.69222639,
    "PC": "K1N 7H2",
    "TYPE": "Residential",
    "DATE_MOD": 20180123
  },
  {
    "ID": "BH218",
    "NAME": "Gamman House",
    "OTHER_NAME": "",
    "ADDRESS": "306 Cyr Avenue",
    "ADDRESS_FR": "306, av Cyr",
    "CITY": "Ottawa",
    "PROVINCE": "ON",
    "DESIGNATION": "Local",
    "DESIGNATION_SPECIFIC": "PartIV",
    "LAT": 45.43397734,
    "LONG": -75.66316544,
    "PC": "K1L 7N7",
    "TYPE": "Residential",
    "DATE_MOD": 20180123
  },
  {
    "ID": "BH111",
    "NAME": "Eglise Sainte Anne",
    "OTHER_NAME": "",
    "ADDRESS": "528 Old St. Patrick Street",
    "ADDRESS_FR": "528, rue Old St. Patrick",
    "CITY": "Ottawa",
    "PROVINCE": "ON",
    "DESIGNATION": "Local",
    "DESIGNATION_SPECIFIC": "PartIV",
    "LAT": 45.43451311,
    "LONG": -75.68313343,
    "PC": "K1N 5L5",
    "TYPE": "Institutional",
    "DATE_MOD": 20180123
  },
  {
    "ID": "BH100",
    "NAME": "163-165 Bolton",
    "OTHER_NAME": "",
    "ADDRESS": "163-165 Bolton",
    "ADDRESS_FR": "163-165, rue Bolton",
    "CITY": "Ottawa",
    "PROVINCE": "ON",
    "DESIGNATION": "Local",
    "DESIGNATION_SPECIFIC": "PartIV",
    "LAT": 45.43455659,
    "LONG": -75.69515609,
    "PC": "K1N 5B4",
    "TYPE": "Residential",
    "DATE_MOD": 20180123
  },
  {
    "ID": "BH102",
    "NAME": "Rocque House",
    "OTHER_NAME": "",
    "ADDRESS": "276 Bruyere Street",
    "ADDRESS_FR": "276, rue Bruyere",
    "CITY": "Ottawa",
    "PROVINCE": "ON",
    "DESIGNATION": "Local",
    "DESIGNATION_SPECIFIC": "PartIV",
    "LAT": 45.43468006,
    "LONG": -75.68919708,
    "PC": "K1N 5E6",
    "TYPE": "Residential",
    "DATE_MOD": 20180123
  },
  {
    "ID": "BH163",
    "NAME": "Children's Hospital",
    "OTHER_NAME": "",
    "ADDRESS": "197-199 Wurtemburg Street",
    "ADDRESS_FR": "197-199, rue Wurtemburg",
    "CITY": "Ottawa",
    "PROVINCE": "ON",
    "DESIGNATION": "Local",
    "DESIGNATION_SPECIFIC": "PartIV",
    "LAT": 45.43475656,
    "LONG": -75.67570303,
    "PC": "K1N 8L9",
    "TYPE": "Institutional",
    "DATE_MOD": 20180123
  },
  {
    "ID": "BH98",
    "NAME": "Earnscliffe",
    "OTHER_NAME": "",
    "ADDRESS": "140 Sussex Drive",
    "ADDRESS_FR": "140, prom Sussex",
    "CITY": "Ottawa",
    "PROVINCE": "ON",
    "DESIGNATION": "Local,National",
    "DESIGNATION_SPECIFIC": "PartIV,NHS",
    "LAT": 45.4369534,
    "LONG": -75.697648,
    "PC": "K1N 5A2",
    "TYPE": "Residential",
    "DATE_MOD": 20180123
  },
  {
    "ID": "BH409",
    "NAME": "Old St. Mary's Church and Ruins",
    "OTHER_NAME": "",
    "ADDRESS": "269 Pinhey's Point Rd.",
    "ADDRESS_FR": "269, chemin Pinhey's Point",
    "CITY": "Ottawa",
    "PROVINCE": "ON",
    "DESIGNATION": "Local",
    "DESIGNATION_SPECIFIC": "PartIV",
    "LAT": 45.438925,
    "LONG": -75.952274,
    "PC": "K0A 1T0",
    "TYPE": "Institutional",
    "DATE_MOD": 20180123
  },
  {
    "ID": "BH94",
    "NAME": "Former Ottawa City Hall",
    "OTHER_NAME": "",
    "ADDRESS": "111 Sussex Drive",
    "ADDRESS_FR": "111, prom Sussex",
    "CITY": "Ottawa",
    "PROVINCE": "ON",
    "DESIGNATION": "Local",
    "DESIGNATION_SPECIFIC": "PartIV",
    "LAT": 45.43973388,
    "LONG": -75.69404945,
    "PC": "K1N 1J1",
    "TYPE": "Institutional",
    "DATE_MOD": 20180123
  },
  {
    "ID": "BH228",
    "NAME": "Bell House",
    "OTHER_NAME": "",
    "ADDRESS": "151 Stanley Avenue",
    "ADDRESS_FR": "151, av Stanley",
    "CITY": "Ottawa",
    "PROVINCE": "ON",
    "DESIGNATION": "Local",
    "DESIGNATION_SPECIFIC": "PartIV",
    "LAT": 45.43977924,
    "LONG": -75.68816917,
    "PC": "K1M 1P2",
    "TYPE": "Residential",
    "DATE_MOD": 20180123
  },
  {
    "ID": "BH323",
    "NAME": "Minto Bridges",
    "OTHER_NAME": "",
    "ADDRESS": "STANLEY AVENUE & UNION ST",
    "ADDRESS_FR": "Av Stanley et rue Union",
    "CITY": "Ottawa",
    "PROVINCE": "ON",
    "DESIGNATION": "Local",
    "DESIGNATION_SPECIFIC": "PartIV",
    "LAT": 45.43984288,
    "LONG": -75.69188665,
    "PC": "",
    "TYPE": "Other",
    "DATE_MOD": 20180123
  },
  {
    "ID": "BH231",
    "NAME": "Crichton Street School",
    "OTHER_NAME": "",
    "ADDRESS": "200 Crichton Street",
    "ADDRESS_FR": "200, rue Crichton",
    "CITY": "Ottawa",
    "PROVINCE": "ON",
    "DESIGNATION": "Local",
    "DESIGNATION_SPECIFIC": "PartIV",
    "LAT": 45.44012452,
    "LONG": -75.68362328,
    "PC": "K1M 1W2",
    "TYPE": "Institutional",
    "DATE_MOD": 20180123
  },
  {
    "ID": "BH227",
    "NAME": "Jones House",
    "OTHER_NAME": "",
    "ADDRESS": "119 Stanley Avenue",
    "ADDRESS_FR": "119, av Stanley",
    "CITY": "Ottawa",
    "PROVINCE": "ON",
    "DESIGNATION": "Local",
    "DESIGNATION_SPECIFIC": "PartIV",
    "LAT": 45.44022898,
    "LONG": -75.68962103,
    "PC": "K1M 1N8",
    "TYPE": "Residential",
    "DATE_MOD": 20180123
  },
  {
    "ID": "BH230",
    "NAME": "Garvock House",
    "OTHER_NAME": "",
    "ADDRESS": "139-141 Crichton Street",
    "ADDRESS_FR": "139-141, rue Crichton",
    "CITY": "Ottawa",
    "PROVINCE": "ON",
    "DESIGNATION": "Local",
    "DESIGNATION_SPECIFIC": "PartIV",
    "LAT": 45.44028257,
    "LONG": -75.68585977,
    "PC": "K1M 1W1",
    "TYPE": "Residential",
    "DATE_MOD": 20180123
  },
  {
    "ID": "BH250",
    "NAME": "Pinhey Property",
    "OTHER_NAME": "",
    "ADDRESS": "270 Pinhey's Point Road",
    "ADDRESS_FR": "270, chemin Pinhey's Point",
    "CITY": "Ottawa",
    "PROVINCE": "ON",
    "DESIGNATION": "Local",
    "DESIGNATION_SPECIFIC": "PartIV",
    "LAT": 45.44041752,
    "LONG": -75.95328568,
    "PC": "K0A 1T0",
    "TYPE": "Residential",
    "DATE_MOD": 20180123
  },
  {
    "ID": "BH224",
    "NAME": "St. Charles School",
    "OTHER_NAME": "",
    "ADDRESS": "24 Springfield Road",
    "ADDRESS_FR": "24, chemin Springfield",
    "CITY": "Ottawa",
    "PROVINCE": "ON",
    "DESIGNATION": "Local",
    "DESIGNATION_SPECIFIC": "PartIV",
    "LAT": 45.44044635,
    "LONG": -75.67687098,
    "PC": "K1M 1C9",
    "TYPE": "Institutional",
    "DATE_MOD": 20180123
  },
  {
    "ID": "BH234",
    "NAME": "MacKay United Church",
    "OTHER_NAME": "",
    "ADDRESS": "257 MacKay Street",
    "ADDRESS_FR": "257, rue MacKay",
    "CITY": "Ottawa",
    "PROVINCE": "ON",
    "DESIGNATION": "Local",
    "DESIGNATION_SPECIFIC": "PartIV",
    "LAT": 45.44048619,
    "LONG": -75.6830959,
    "PC": "K1M 2B6",
    "TYPE": "Institutional",
    "DATE_MOD": 20180123
  },
  {
    "ID": "BH229",
    "NAME": "McLeod House",
    "OTHER_NAME": "",
    "ADDRESS": "92 Stanley Avenue",
    "ADDRESS_FR": "92, av Stanley",
    "CITY": "Ottawa",
    "PROVINCE": "ON",
    "DESIGNATION": "Local",
    "DESIGNATION_SPECIFIC": "PartIV",
    "LAT": 45.44096037,
    "LONG": -75.69051346,
    "PC": "K1M 1P4",
    "TYPE": "Residential",
    "DATE_MOD": 20180123
  },
  {
    "ID": "BH213",
    "NAME": "Garrett House",
    "OTHER_NAME": "",
    "ADDRESS": "51 Crichton Street",
    "ADDRESS_FR": "51, rue Crichton",
    "CITY": "Ottawa",
    "PROVINCE": "ON",
    "DESIGNATION": "Local",
    "DESIGNATION_SPECIFIC": "PartIV",
    "LAT": 45.44146614,
    "LONG": -75.68968544,
    "PC": "K1M 1V6",
    "TYPE": "Residential",
    "DATE_MOD": 20180123
  },
  {
    "ID": "BH215",
    "NAME": "Landsdowne Terrace",
    "OTHER_NAME": "",
    "ADDRESS": "157-167 MacKay Street",
    "ADDRESS_FR": "157-167, rue MacKay",
    "CITY": "Ottawa",
    "PROVINCE": "ON",
    "DESIGNATION": "Local",
    "DESIGNATION_SPECIFIC": "PartIV",
    "LAT": 45.44172156,
    "LONG": -75.6868333,
    "PC": "K1M 2B5",
    "TYPE": "Residential",
    "DATE_MOD": 20180123
  },
  {
    "ID": "BH212",
    "NAME": "25-29 Crichton Street",
    "OTHER_NAME": "",
    "ADDRESS": "25-29 Crichton Street",
    "ADDRESS_FR": "25-29, rue Crichton",
    "CITY": "Ottawa",
    "PROVINCE": "ON",
    "DESIGNATION": "Local",
    "DESIGNATION_SPECIFIC": "PartIV",
    "LAT": 45.44172351,
    "LONG": -75.69055059,
    "PC": "K1M 1V5",
    "TYPE": "Residential",
    "DATE_MOD": 20180123
  },
  {
    "ID": "BH233",
    "NAME": "St. Bartholomew's Church",
    "OTHER_NAME": "",
    "ADDRESS": "125 MacKay Street",
    "ADDRESS_FR": "125, rue MacKay",
    "CITY": "Ottawa",
    "PROVINCE": "ON",
    "DESIGNATION": "Local",
    "DESIGNATION_SPECIFIC": "PartIV",
    "LAT": 45.44211681,
    "LONG": -75.68838362,
    "PC": "K1M 2B4",
    "TYPE": "Institutional",
    "DATE_MOD": 20180123
  },
  {
    "ID": "BH226",
    "NAME": "Fraser School House",
    "OTHER_NAME": "",
    "ADDRESS": "62-64 John Street",
    "ADDRESS_FR": "62-64, rue John",
    "CITY": "Ottawa",
    "PROVINCE": "ON",
    "DESIGNATION": "Local",
    "DESIGNATION_SPECIFIC": "PartIV",
    "LAT": 45.44250584,
    "LONG": -75.69318367,
    "PC": "K1M 1M3",
    "TYPE": "Institutional",
    "DATE_MOD": 20180123
  },
  {
    "ID": "BH235",
    "NAME": "Maison Fr�chette",
    "OTHER_NAME": "",
    "ADDRESS": "87 MacKay Street",
    "ADDRESS_FR": "87, rue MacKay",
    "CITY": "Ottawa",
    "PROVINCE": "ON",
    "DESIGNATION": "Local",
    "DESIGNATION_SPECIFIC": "PartIV",
    "LAT": 45.44256832,
    "LONG": -75.6895065,
    "PC": "K1M 2E4",
    "TYPE": "Residential",
    "DATE_MOD": 20180123
  },
  {
    "ID": "BH216",
    "NAME": "Woodburn House",
    "OTHER_NAME": "",
    "ADDRESS": "73-75 MacKay Street",
    "ADDRESS_FR": "73-75, rue MacKay",
    "CITY": "Ottawa",
    "PROVINCE": "ON",
    "DESIGNATION": "Local",
    "DESIGNATION_SPECIFIC": "PartIV",
    "LAT": 45.44275806,
    "LONG": -75.69019285,
    "PC": "K1M 2E4",
    "TYPE": "Residential",
    "DATE_MOD": 20180123
  },
  {
    "ID": "BH211",
    "NAME": "Henderson House",
    "OTHER_NAME": "",
    "ADDRESS": "34 Alexander Street",
    "ADDRESS_FR": "34, rue Alexander",
    "CITY": "Ottawa",
    "PROVINCE": "ON",
    "DESIGNATION": "Local",
    "DESIGNATION_SPECIFIC": "PartIV",
    "LAT": 45.44292269,
    "LONG": -75.69184188,
    "PC": "K1M 1N2",
    "TYPE": "Residential",
    "DATE_MOD": 20180123
  },
  {
    "ID": "BH214",
    "NAME": "Allan House",
    "OTHER_NAME": "",
    "ADDRESS": "35 MacKay Street",
    "ADDRESS_FR": "35, rue MacKay",
    "CITY": "Ottawa",
    "PROVINCE": "ON",
    "DESIGNATION": "Local",
    "DESIGNATION_SPECIFIC": "PartIV",
    "LAT": 45.44320752,
    "LONG": -75.69164564,
    "PC": "K1M 2B2",
    "TYPE": "Residential",
    "DATE_MOD": 20180123
  },
  {
    "ID": "BH210",
    "NAME": "Richelieu Park",
    "OTHER_NAME": "",
    "ADDRESS": "300-310 des peres blancs ave",
    "ADDRESS_FR": "300-310, avenue des peres blancs",
    "CITY": "Ottawa",
    "PROVINCE": "ON",
    "DESIGNATION": "Local",
    "DESIGNATION_SPECIFIC": "PartIV",
    "LAT": 45.44384198,
    "LONG": -75.66114961,
    "PC": "K1L 7L5",
    "TYPE": "Institutional",
    "DATE_MOD": 20180123
  },
  {
    "ID": "BH232",
    "NAME": "Burpee House",
    "OTHER_NAME": "",
    "ADDRESS": "22 Rideau Terrace",
    "ADDRESS_FR": "22, tsse Rideau",
    "CITY": "Ottawa",
    "PROVINCE": "ON",
    "DESIGNATION": "Local",
    "DESIGNATION_SPECIFIC": "PartIV",
    "LAT": 45.444031,
    "LONG": -75.679688,
    "PC": "K1M 2A1",
    "TYPE": "Residential",
    "DATE_MOD": 20180123
  },
  {
    "ID": "BH7",
    "NAME": "Rideau Hall and Landscaped Grounds",
    "OTHER_NAME": "",
    "ADDRESS": "1 Sussex Drive",
    "ADDRESS_FR": "1, prom Sussex",
    "CITY": "Ottawa",
    "PROVINCE": "ON",
    "DESIGNATION": "National",
    "DESIGNATION_SPECIFIC": "NHS",
    "LAT": 45.4445647,
    "LONG": -75.6916174,
    "PC": "K1A 0A1",
    "TYPE": "Institutional",
    "DATE_MOD": 20180123
  },
  {
    "ID": "BH222",
    "NAME": "108 Acacia Avenue",
    "OTHER_NAME": "",
    "ADDRESS": "108 Acacia Avenue",
    "ADDRESS_FR": "108, av Acacia",
    "CITY": "Ottawa",
    "PROVINCE": "ON",
    "DESIGNATION": "Local",
    "DESIGNATION_SPECIFIC": "PartIV",
    "LAT": 45.4453579,
    "LONG": -75.67228783,
    "PC": "K1M 0P9",
    "TYPE": "Residential",
    "DATE_MOD": 20180123
  },
  {
    "ID": "BH225",
    "NAME": "Beechwood Cemetery",
    "OTHER_NAME": "",
    "ADDRESS": "280 Beechwood Ave",
    "ADDRESS_FR": "280, av Beechwood",
    "CITY": "Ottawa",
    "PROVINCE": "ON",
    "DESIGNATION": "National",
    "DESIGNATION_SPECIFIC": "NHS",
    "LAT": 45.4454581,
    "LONG": -75.6696866,
    "PC": "K1M 1K5",
    "TYPE": "Other",
    "DATE_MOD": 20180123
  },
  {
    "ID": "BH219",
    "NAME": "160 Lisgar Road",
    "OTHER_NAME": "",
    "ADDRESS": "160 Lisgar Road",
    "ADDRESS_FR": "160, chemin Lisgar",
    "CITY": "Ottawa",
    "PROVINCE": "ON",
    "DESIGNATION": "Local",
    "DESIGNATION_SPECIFIC": "PartIV",
    "LAT": 45.44670568,
    "LONG": -75.68225093,
    "PC": "K1M 0E6",
    "TYPE": "Residential",
    "DATE_MOD": 20180123
  },
  {
    "ID": "BH223",
    "NAME": "17 Mariposa Avenue",
    "OTHER_NAME": "",
    "ADDRESS": "17 Mariposa Avenue",
    "ADDRESS_FR": "17, av Mariposa",
    "CITY": "Ottawa",
    "PROVINCE": "ON",
    "DESIGNATION": "Local",
    "DESIGNATION_SPECIFIC": "PartIV",
    "LAT": 45.44787731,
    "LONG": -75.68328569,
    "PC": "K1M 0T9",
    "TYPE": "Residential",
    "DATE_MOD": 20180123
  },
  {
    "ID": "BH220",
    "NAME": "541 Manor Avenue",
    "OTHER_NAME": "",
    "ADDRESS": "541 Manor Avenue",
    "ADDRESS_FR": "541, av Manor",
    "CITY": "Ottawa",
    "PROVINCE": "ON",
    "DESIGNATION": "Local",
    "DESIGNATION_SPECIFIC": "PartIV",
    "LAT": 45.4525594,
    "LONG": -75.68257564,
    "PC": "K1M 0J1",
    "TYPE": "Residential",
    "DATE_MOD": 20180123
  },
  {
    "ID": "BH221",
    "NAME": "9 Crescent Road",
    "OTHER_NAME": "",
    "ADDRESS": "9 Crescent Road",
    "ADDRESS_FR": "9, chemin Crescent",
    "CITY": "Ottawa",
    "PROVINCE": "ON",
    "DESIGNATION": "Local",
    "DESIGNATION_SPECIFIC": "PartIV",
    "LAT": 45.45386596,
    "LONG": -75.67709341,
    "PC": "K1M 0N1",
    "TYPE": "Residential",
    "DATE_MOD": 20180123
  },
  {
    "ID": "BH236",
    "NAME": "Ottawa New Edinburgh Club",
    "OTHER_NAME": "",
    "ADDRESS": "501 Rockcliffe Parkway",
    "ADDRESS_FR": "501, voie Rockcliffe",
    "CITY": "Ottawa",
    "PROVINCE": "ON",
    "DESIGNATION": "Local",
    "DESIGNATION_SPECIFIC": "PartIV",
    "LAT": 45.45753707,
    "LONG": -75.6782907,
    "PC": "K1M 2H9",
    "TYPE": "Institutional",
    "DATE_MOD": 20180123
  },
  {
    "ID": "BH217",
    "NAME": "Butler House",
    "OTHER_NAME": "",
    "ADDRESS": "1445 St. Joseph Boulevard",
    "ADDRESS_FR": "1445, boul St. Joseph",
    "CITY": "Ottawa",
    "PROVINCE": "ON",
    "DESIGNATION": "Local",
    "DESIGNATION_SPECIFIC": "PartIV",
    "LAT": 45.45779015,
    "LONG": -75.56751213,
    "PC": "K1C 7K9",
    "TYPE": "Residential",
    "DATE_MOD": 20180123
  },
  {
    "ID": "BH413",
    "NAME": "Ferme Youville",
    "OTHER_NAME": "",
    "ADDRESS": "1811 St. Joseph Blvd.",
    "ADDRESS_FR": "1811, boul St. Joseph",
    "CITY": "Ottawa",
    "PROVINCE": "ON",
    "DESIGNATION": "Local",
    "DESIGNATION_SPECIFIC": "PartIV",
    "LAT": 45.461997,
    "LONG": -75.5468353,
    "PC": "K1C 7C6",
    "TYPE": "Agricultural",
    "DATE_MOD": 20180123
  },
  {
    "ID": "BH252",
    "NAME": "Shirreff Log Home",
    "OTHER_NAME": "2337 Fitzroy Street",
    "ADDRESS": "2337 MARKET ST",
    "ADDRESS_FR": "2337, rue Market",
    "CITY": "Ottawa",
    "PROVINCE": "ON",
    "DESIGNATION": "Local",
    "DESIGNATION_SPECIFIC": "PartIV",
    "LAT": 45.47351926,
    "LONG": -76.21178744,
    "PC": "K0A 1X0",
    "TYPE": "Residential",
    "DATE_MOD": 20180123
  },
  {
    "ID": "BH281",
    "NAME": "St. Andrew's Presbyterian Church",
    "OTHER_NAME": "",
    "ADDRESS": "1325 KILMAURS SIDE ROAD",
    "ADDRESS_FR": "1325, chemin Kilmaurs Side",
    "CITY": "Ottawa",
    "PROVINCE": "ON",
    "DESIGNATION": "Local",
    "DESIGNATION_SPECIFIC": "PartIV",
    "LAT": 45.47497589,
    "LONG": -76.11582036,
    "PC": "K0A 3M0",
    "TYPE": "Institutional",
    "DATE_MOD": 20180123
  },
  {
    "ID": "BH241",
    "NAME": "Cameron House",
    "OTHER_NAME": "",
    "ADDRESS": "2226 Old Montreal Road",
    "ADDRESS_FR": "2226, chemin Old Montreal",
    "CITY": "Ottawa",
    "PROVINCE": "ON",
    "DESIGNATION": "Local",
    "DESIGNATION_SPECIFIC": "PartIV",
    "LAT": 45.51047492,
    "LONG": -75.42232094,
    "PC": "K4C 1G5",
    "TYPE": "Residential",
    "DATE_MOD": 20180123
  },
  {
    "ID": "BH280",
    "NAME": "Pinhey Cottage",
    "OTHER_NAME": "",
    "ADDRESS": "5029 Dunrobin Road",
    "ADDRESS_FR": "5029, chemin Dunrobin",
    "CITY": "Ottawa",
    "PROVINCE": "ON",
    "DESIGNATION": "Local",
    "DESIGNATION_SPECIFIC": "PartIV",
    "LAT": 45.51090395,
    "LONG": -76.14477855,
    "PC": "K0A 3M0",
    "TYPE": "Residential",
    "DATE_MOD": 20180123
  },
  {
    "ID": "BH238",
    "NAME": "Clearview",
    "OTHER_NAME": "",
    "ADDRESS": "2607 Old Montreal Road",
    "ADDRESS_FR": "2607, chemin Old Montreal",
    "CITY": "Ottawa",
    "PROVINCE": "ON",
    "DESIGNATION": "Local",
    "DESIGNATION_SPECIFIC": "PartIV",
    "LAT": 45.51773368,
    "LONG": -75.40458629,
    "PC": "K4C 1A2",
    "TYPE": "Residential",
    "DATE_MOD": 20180123
  },
  {
    "ID": "BH240",
    "NAME": "Cumberland Heritage Village Museum",
    "OTHER_NAME": "",
    "ADDRESS": "2940 Old Montreal Road",
    "ADDRESS_FR": "2940, chemin Old Montreal",
    "CITY": "Ottawa",
    "PROVINCE": "ON",
    "DESIGNATION": "Local",
    "DESIGNATION_SPECIFIC": "PartIV",
    "LAT": 45.51777963,
    "LONG": -75.39124786,
    "PC": "K4C 1G3",
    "TYPE": "Other",
    "DATE_MOD": 20180123
  },
  {
    "ID": "BH239",
    "NAME": "Old Wilson House",
    "OTHER_NAME": "",
    "ADDRESS": "2800 Old Montreal Road",
    "ADDRESS_FR": "2800, chemin Old Montreal",
    "CITY": "Ottawa",
    "PROVINCE": "ON",
    "DESIGNATION": "Local",
    "DESIGNATION_SPECIFIC": "PartIV",
    "LAT": 45.51780186,
    "LONG": -75.39747838,
    "PC": "K4C 1G3",
    "TYPE": "Residential",
    "DATE_MOD": 20180123
  },
  {
    "ID": "BH417",
    "NAME": "Coach House (of the Prime Minister's Residence)",
    "OTHER_NAME": "",
    "ADDRESS": "10 Sussex Drive",
    "ADDRESS_FR": "10, prom Sussex",
    "CITY": "Ottawa",
    "PROVINCE": "ON",
    "DESIGNATION": "National",
    "DESIGNATION_SPECIFIC": "FHBRO",
    "LAT": 45.444763,
    "LONG": -75.692734,
    "PC": "K1M 1M4",
    "TYPE": "Residential",
    "DATE_MOD": 20180123
  },
  {
    "ID": "BH418",
    "NAME": "R.H. Coats",
    "OTHER_NAME": "",
    "ADDRESS": "100 - 100 Tunney's Pasture Driveway",
    "ADDRESS_FR": "100 - 100, prom Tunney's Pasture",
    "CITY": "Ottawa",
    "PROVINCE": "ON",
    "DESIGNATION": "National",
    "DESIGNATION_SPECIFIC": "FHBRO",
    "LAT": 45.404843,
    "LONG": -75.734133,
    "PC": "K1A 0T6",
    "TYPE": "Institutional",
    "DATE_MOD": 20180123
  },
  {
    "ID": "BH419",
    "NAME": "NRC Laboratories",
    "OTHER_NAME": "",
    "ADDRESS": "100 Sussex Drive",
    "ADDRESS_FR": "100, prom Sussex",
    "CITY": "Ottawa",
    "PROVINCE": "ON",
    "DESIGNATION": "National",
    "DESIGNATION_SPECIFIC": "FHBRO",
    "LAT": 45.438612,
    "LONG": -75.697549,
    "PC": "K1N 5A2",
    "TYPE": "Institutional",
    "DATE_MOD": 20180123
  },
  {
    "ID": "BH420",
    "NAME": "U.S. Embassy",
    "OTHER_NAME": "",
    "ADDRESS": "100 Wellington Street",
    "ADDRESS_FR": "100, rue Wellington",
    "CITY": "Ottawa",
    "PROVINCE": "ON",
    "DESIGNATION": "National",
    "DESIGNATION_SPECIFIC": "FHBRO",
    "LAT": 45.423041,
    "LONG": -75.698874,
    "PC": "K1A 0A6",
    "TYPE": "Institutional",
    "DATE_MOD": 20180123
  },
  {
    "ID": "BH421",
    "NAME": "Birks Building",
    "OTHER_NAME": "",
    "ADDRESS": "107 Sparks Street",
    "ADDRESS_FR": "107, rue Sparks",
    "CITY": "Ottawa",
    "PROVINCE": "ON",
    "DESIGNATION": "National",
    "DESIGNATION_SPECIFIC": "FHBRO",
    "LAT": 45.422804,
    "LONG": -75.697969,
    "PC": "K1P 5B5",
    "TYPE": "Commercial",
    "DATE_MOD": 20180123
  },
  {
    "ID": "BH422",
    "NAME": "Bate Building",
    "OTHER_NAME": "",
    "ADDRESS": "109 - 111 Sparks Street",
    "ADDRESS_FR": "109 - 111 rue Sparks",
    "CITY": "Ottawa",
    "PROVINCE": "ON",
    "DESIGNATION": "National",
    "DESIGNATION_SPECIFIC": "FHBRO",
    "LAT": 45.422748,
    "LONG": -75.698135,
    "PC": "K1P 5R5",
    "TYPE": "Commercial",
    "DATE_MOD": 20180123
  },
  {
    "ID": "BH423",
    "NAME": "Rideau Hall Visitor Center",
    "OTHER_NAME": "",
    "ADDRESS": "11 Rideau Gate",
    "ADDRESS_FR": "11, Rideau Gate",
    "CITY": "Ottawa",
    "PROVINCE": "ON",
    "DESIGNATION": "National",
    "DESIGNATION_SPECIFIC": "FHBRO",
    "LAT": 45.443965,
    "LONG": -75.691669,
    "PC": "K1M 2E5",
    "TYPE": "Residential",
    "DATE_MOD": 20180123
  },
  {
    "ID": "BH424",
    "NAME": "Canadian Imperial Bank of Commerce",
    "OTHER_NAME": "",
    "ADDRESS": "119 Sparks Street",
    "ADDRESS_FR": "119, rue Sparks",
    "CITY": "Ottawa",
    "PROVINCE": "ON",
    "DESIGNATION": "National",
    "DESIGNATION_SPECIFIC": "FHBRO",
    "LAT": 45.422636,
    "LONG": -75.698383,
    "PC": "K1P 5B5",
    "TYPE": "Commercial",
    "DATE_MOD": 20180123
  },
  {
    "ID": "BH425",
    "NAME": "RCMP Headquarters Building",
    "OTHER_NAME": "Nicholson Building",
    "ADDRESS": "1200 Alta Vista Drive",
    "ADDRESS_FR": "1200, prom Alta Vista",
    "CITY": "Ottawa",
    "PROVINCE": "ON",
    "DESIGNATION": "National",
    "DESIGNATION_SPECIFIC": "FHBRO",
    "LAT": 45.41143,
    "LONG": -75.655955,
    "PC": "K1G",
    "TYPE": "Institutional",
    "DATE_MOD": 20180123
  },
  {
    "ID": "BH426",
    "NAME": "Lester B. Pearson Building",
    "OTHER_NAME": "",
    "ADDRESS": "125 Sussex Drive",
    "ADDRESS_FR": "125, prom Sussex",
    "CITY": "Ottawa",
    "PROVINCE": "ON",
    "DESIGNATION": "National",
    "DESIGNATION_SPECIFIC": "FHBRO",
    "LAT": 45.436909,
    "LONG": -75.695946,
    "PC": "K1A 0G2",
    "TYPE": "Institutional",
    "DATE_MOD": 20180123
  },
  {
    "ID": "BH427",
    "NAME": "Commercial Building",
    "OTHER_NAME": "",
    "ADDRESS": "13 - 15 Clarence Street",
    "ADDRESS_FR": "13 - 15 rue Clarence",
    "CITY": "Ottawa",
    "PROVINCE": "ON",
    "DESIGNATION": "National",
    "DESIGNATION_SPECIFIC": "FHBRO",
    "LAT": 45.428373,
    "LONG": -75.695106,
    "PC": "K1N 5P9",
    "TYPE": "Commercial",
    "DATE_MOD": 20180123
  },
  {
    "ID": "BH428",
    "NAME": "Rideau Cottage",
    "OTHER_NAME": "",
    "ADDRESS": "13 Sussex Drive",
    "ADDRESS_FR": "13, prom Sussex",
    "CITY": "Ottawa",
    "PROVINCE": "ON",
    "DESIGNATION": "National",
    "DESIGNATION_SPECIFIC": "FHBRO",
    "LAT": 45.444228,
    "LONG": -75.692866,
    "PC": "K1M",
    "TYPE": "Residential",
    "DATE_MOD": 20180123
  },
  {
    "ID": "BH429",
    "NAME": "Hardy Arcade",
    "OTHER_NAME": "",
    "ADDRESS": "130 Sparks Street",
    "ADDRESS_FR": "130, rue Sparks",
    "CITY": "Ottawa",
    "PROVINCE": "ON",
    "DESIGNATION": "National",
    "DESIGNATION_SPECIFIC": "FHBRO",
    "LAT": 45.422113,
    "LONG": -75.698476,
    "PC": "K1P",
    "TYPE": "Commercial",
    "DATE_MOD": 20180123
  },
  {
    "ID": "BH430",
    "NAME": "Marshall Building",
    "OTHER_NAME": "",
    "ADDRESS": "14 Metcalfe Street",
    "ADDRESS_FR": "14, rue Metcalfe",
    "CITY": "Ottawa",
    "PROVINCE": "ON",
    "DESIGNATION": "National",
    "DESIGNATION_SPECIFIC": "FHBRO",
    "LAT": 45.423012,
    "LONG": -75.697711,
    "PC": "K1P 5L1",
    "TYPE": "Institutional",
    "DATE_MOD": 20180123
  },
  {
    "ID": "BH431",
    "NAME": "Victoria Building",
    "OTHER_NAME": "",
    "ADDRESS": "140 Wellington Street",
    "ADDRESS_FR": "140, rue Wellington",
    "CITY": "Ottawa",
    "PROVINCE": "ON",
    "DESIGNATION": "National",
    "DESIGNATION_SPECIFIC": "FHBRO",
    "LAT": 45.422652,
    "LONG": -75.699537,
    "PC": "K1P 5M",
    "TYPE": "Institutional",
    "DATE_MOD": 20180123
  },
  {
    "ID": "BH432",
    "NAME": "Bank of Montreal",
    "OTHER_NAME": "",
    "ADDRESS": "144 Wellington Street",
    "ADDRESS_FR": "144, rue Wellington",
    "CITY": "Ottawa",
    "PROVINCE": "ON",
    "DESIGNATION": "National",
    "DESIGNATION_SPECIFIC": "FHBRO",
    "LAT": 45.422445,
    "LONG": -75.700042,
    "PC": "K1A",
    "TYPE": "Commercial",
    "DATE_MOD": 20180123
  },
  {
    "ID": "BH433",
    "NAME": "Pavilions at the Federal Study Centre",
    "OTHER_NAME": "",
    "ADDRESS": "1495 Heron Road",
    "ADDRESS_FR": "1495, chemin Heron",
    "CITY": "Ottawa",
    "PROVINCE": "ON",
    "DESIGNATION": "National",
    "DESIGNATION_SPECIFIC": "FHBRO",
    "LAT": 45.379656,
    "LONG": -75.652853,
    "PC": "K1V 9V1",
    "TYPE": "Institutional",
    "DATE_MOD": 20180123
  },
  {
    "ID": "BH434",
    "NAME": "Bronson Company Office",
    "OTHER_NAME": "",
    "ADDRESS": "150 Middle Street",
    "ADDRESS_FR": "150, rue Middle",
    "CITY": "Ottawa",
    "PROVINCE": "ON",
    "DESIGNATION": "National",
    "DESIGNATION_SPECIFIC": "FHBRO",
    "LAT": 45.420313,
    "LONG": -75.714076,
    "PC": "K1R",
    "TYPE": "Commercial",
    "DATE_MOD": 20180123
  },
  {
    "ID": "BH435",
    "NAME": "National Press Building",
    "OTHER_NAME": "",
    "ADDRESS": "150 Wellington Street",
    "ADDRESS_FR": "150, rue Wellington",
    "CITY": "Ottawa",
    "PROVINCE": "ON",
    "DESIGNATION": "National",
    "DESIGNATION_SPECIFIC": "FHBRO",
    "LAT": 45.422168,
    "LONG": -75.700375,
    "PC": "K1P 5A4",
    "TYPE": "Institutional",
    "DATE_MOD": 20180123
  },
  {
    "ID": "BH436",
    "NAME": "CBC Building",
    "OTHER_NAME": "Edward Drake Building",
    "ADDRESS": "1500 Bronson Avenue",
    "ADDRESS_FR": "1500, av Bronson",
    "CITY": "Ottawa",
    "PROVINCE": "ON",
    "DESIGNATION": "National",
    "DESIGNATION_SPECIFIC": "FHBRO",
    "LAT": 45.378511,
    "LONG": -75.687389,
    "PC": "K1G 3J5",
    "TYPE": "Institutional",
    "DATE_MOD": 20180123
  },
  {
    "ID": "BH437",
    "NAME": "Booth Building",
    "OTHER_NAME": "",
    "ADDRESS": "165 Sparks Street",
    "ADDRESS_FR": "165, rue Sparks",
    "CITY": "Ottawa",
    "PROVINCE": "ON",
    "DESIGNATION": "National",
    "DESIGNATION_SPECIFIC": "FHBRO",
    "LAT": 45.421985,
    "LONG": -75.699711,
    "PC": "K1P 5B9",
    "TYPE": "Commercial",
    "DATE_MOD": 20180123
  },
  {
    "ID": "BH438",
    "NAME": "Office Building",
    "OTHER_NAME": "",
    "ADDRESS": "17 York Street",
    "ADDRESS_FR": "17, rue York",
    "CITY": "Ottawa",
    "PROVINCE": "ON",
    "DESIGNATION": "National",
    "DESIGNATION_SPECIFIC": "FHBRO",
    "LAT": 45.427898,
    "LONG": -75.694424,
    "PC": "K1N",
    "TYPE": "Commercial",
    "DATE_MOD": 20180123
  },
  {
    "ID": "BH439",
    "NAME": "Slater Building",
    "OTHER_NAME": "",
    "ADDRESS": "177 - 179 Sparks Street",
    "ADDRESS_FR": "177 - 179, rue Sparks",
    "CITY": "Ottawa",
    "PROVINCE": "ON",
    "DESIGNATION": "National",
    "DESIGNATION_SPECIFIC": "FHBRO",
    "LAT": 45.421776,
    "LONG": -75.700217,
    "PC": "K1P 5B9",
    "TYPE": "Commercial",
    "DATE_MOD": 20180123
  },
  {
    "ID": "BH440",
    "NAME": "Wellington Building",
    "OTHER_NAME": "",
    "ADDRESS": "180 Wellington Street",
    "ADDRESS_FR": "180, rue Wellington",
    "CITY": "Ottawa",
    "PROVINCE": "ON",
    "DESIGNATION": "National",
    "DESIGNATION_SPECIFIC": "FHBRO",
    "LAT": 45.422066,
    "LONG": -75.700654,
    "PC": "K1A 0A6",
    "TYPE": "Institutional",
    "DATE_MOD": 20180123
  },
  {
    "ID": "BH441",
    "NAME": "Brouse Building",
    "OTHER_NAME": "",
    "ADDRESS": "181 - 183 Sparks Street",
    "ADDRESS_FR": "181 - 183, rue Sparks",
    "CITY": "Ottawa",
    "PROVINCE": "ON",
    "DESIGNATION": "National",
    "DESIGNATION_SPECIFIC": "FHBRO",
    "LAT": 45.421781,
    "LONG": -75.700365,
    "PC": "K1P 5B9",
    "TYPE": "Commercial",
    "DATE_MOD": 20180123
  },
  {
    "ID": "BH442",
    "NAME": "Dover Building",
    "OTHER_NAME": "",
    "ADDRESS": "185 - 187 Sparks Street",
    "ADDRESS_FR": "185 - 187, rue Sparks",
    "CITY": "Ottawa",
    "PROVINCE": "ON",
    "DESIGNATION": "National",
    "DESIGNATION_SPECIFIC": "FHBRO",
    "LAT": 45.421665,
    "LONG": -75.70037,
    "PC": "K1P 5B9",
    "TYPE": "Commercial",
    "DATE_MOD": 20180123
  },
  {
    "ID": "BH443",
    "NAME": "Confederation Building",
    "OTHER_NAME": "",
    "ADDRESS": "201 Wellington Street",
    "ADDRESS_FR": "201, rue Wellington",
    "CITY": "Ottawa",
    "PROVINCE": "ON",
    "DESIGNATION": "National",
    "DESIGNATION_SPECIFIC": "FHBRO",
    "LAT": 45.421874,
    "LONG": -75.7021,
    "PC": "K1A",
    "TYPE": "Institutional",
    "DATE_MOD": 20180123
  },
  {
    "ID": "BH444",
    "NAME": "Sir Charles Tupper Building",
    "OTHER_NAME": "",
    "ADDRESS": "2250 Riverside Drive",
    "ADDRESS_FR": "2250, prom Riverside",
    "CITY": "Ottawa",
    "PROVINCE": "ON",
    "DESIGNATION": "National",
    "DESIGNATION_SPECIFIC": "FHBRO",
    "LAT": 45.387576,
    "LONG": -75.676818,
    "PC": "K1H 7X9",
    "TYPE": "Institutional",
    "DATE_MOD": 20180123
  },
  {
    "ID": "BH445",
    "NAME": "Prime Minister's Residence",
    "OTHER_NAME": "",
    "ADDRESS": "24 Sussex Drive",
    "ADDRESS_FR": "24, prom Sussex",
    "CITY": "Ottawa",
    "PROVINCE": "ON",
    "DESIGNATION": "National",
    "DESIGNATION_SPECIFIC": "FHBRO",
    "LAT": 45.444612,
    "LONG": -75.692845,
    "PC": "K1M 1M4",
    "TYPE": "Residential",
    "DATE_MOD": 20180123
  },
  {
    "ID": "BH446",
    "NAME": "East Memorial Building",
    "OTHER_NAME": "",
    "ADDRESS": "284 Wellington Street",
    "ADDRESS_FR": "284, rue Wellington",
    "CITY": "Ottawa",
    "PROVINCE": "ON",
    "DESIGNATION": "National",
    "DESIGNATION_SPECIFIC": "FHBRO",
    "LAT": 45.419995,
    "LONG": -75.705041,
    "PC": "K1A 0H8",
    "TYPE": "Institutional",
    "DATE_MOD": 20180123
  },
  {
    "ID": "BH447",
    "NAME": "Canadian Forces Base Uplands",
    "OTHER_NAME": "",
    "ADDRESS": "300 Hunt Club Road",
    "ADDRESS_FR": "300, chemin Hunt Club",
    "CITY": "Ottawa",
    "PROVINCE": "ON",
    "DESIGNATION": "National",
    "DESIGNATION_SPECIFIC": "FHBRO",
    "LAT": 45.336836,
    "LONG": -75.686516,
    "PC": "K1V 1C1",
    "TYPE": "Institutional",
    "DATE_MOD": 20180123
  },
  {
    "ID": "BH448",
    "NAME": "Supreme Court Building",
    "OTHER_NAME": "",
    "ADDRESS": "301 Wellington Street",
    "ADDRESS_FR": "301, rue Wellington",
    "CITY": "Ottawa",
    "PROVINCE": "ON",
    "DESIGNATION": "National",
    "DESIGNATION_SPECIFIC": "FHBRO",
    "LAT": 45.421968,
    "LONG": -75.705514,
    "PC": "K1A 0J1",
    "TYPE": "Institutional",
    "DATE_MOD": 20180123
  },
  {
    "ID": "BH449",
    "NAME": "West Memorial Building",
    "OTHER_NAME": "",
    "ADDRESS": "344 Wellington Street",
    "ADDRESS_FR": "344, rue Wellington",
    "CITY": "Ottawa",
    "PROVINCE": "ON",
    "DESIGNATION": "National",
    "DESIGNATION_SPECIFIC": "FHBRO",
    "LAT": 45.419709,
    "LONG": -75.70632,
    "PC": "K1A",
    "TYPE": "Institutional",
    "DATE_MOD": 20180123
  },
  {
    "ID": "BH450",
    "NAME": "Office Building",
    "OTHER_NAME": "",
    "ADDRESS": "35 George Street",
    "ADDRESS_FR": "35, rue George",
    "CITY": "Ottawa",
    "PROVINCE": "ON",
    "DESIGNATION": "National",
    "DESIGNATION_SPECIFIC": "FHBRO",
    "LAT": 45.42699,
    "LONG": -75.693098,
    "PC": "K1N 8W5",
    "TYPE": "Institutional",
    "DATE_MOD": 20180123
  },
  {
    "ID": "BH451",
    "NAME": "Health Care Centre",
    "OTHER_NAME": "",
    "ADDRESS": "355 Smyth Road",
    "ADDRESS_FR": "355, chemin Smyth",
    "CITY": "Ottawa",
    "PROVINCE": "ON",
    "DESIGNATION": "National",
    "DESIGNATION_SPECIFIC": "FHBRO",
    "LAT": 45.399146,
    "LONG": -75.65507,
    "PC": "",
    "TYPE": "Institutional",
    "DATE_MOD": 20180123
  },
  {
    "ID": "BH452",
    "NAME": "Acad�mie De La Salle",
    "OTHER_NAME": "",
    "ADDRESS": "373 Sussex Drive",
    "ADDRESS_FR": "373, prom Sussex",
    "CITY": "Ottawa",
    "PROVINCE": "ON",
    "DESIGNATION": "National",
    "DESIGNATION_SPECIFIC": "FHBRO",
    "LAT": 45.430437,
    "LONG": -75.696534,
    "PC": "K1N 7B1",
    "TYPE": "Institutional",
    "DATE_MOD": 20180123
  },
  {
    "ID": "BH453",
    "NAME": "Public Archives and National Library",
    "OTHER_NAME": "",
    "ADDRESS": "395 Wellington Street",
    "ADDRESS_FR": "395, rue Wellington",
    "CITY": "Ottawa",
    "PROVINCE": "ON",
    "DESIGNATION": "National",
    "DESIGNATION_SPECIFIC": "FHBRO",
    "LAT": 45.41985,
    "LONG": -75.708076,
    "PC": "K1A 0N4",
    "TYPE": "Institutional",
    "DATE_MOD": 20180123
  },
  {
    "ID": "BH454",
    "NAME": "EMR Complex: Ceramics Lab",
    "OTHER_NAME": "",
    "ADDRESS": "405 Rochester Street",
    "ADDRESS_FR": "405, rue Rochester",
    "CITY": "Ottawa",
    "PROVINCE": "ON",
    "DESIGNATION": "National",
    "DESIGNATION_SPECIFIC": "FHBRO",
    "LAT": 45.402459,
    "LONG": -75.708052,
    "PC": "K1S",
    "TYPE": "Institutional",
    "DATE_MOD": 20180123
  },
  {
    "ID": "BH455",
    "NAME": "Scottish Ontario Chambers",
    "OTHER_NAME": "",
    "ADDRESS": "42 - 50 Sparks Street",
    "ADDRESS_FR": "42 - 50, rue Sparks",
    "CITY": "Ottawa",
    "PROVINCE": "ON",
    "DESIGNATION": "National",
    "DESIGNATION_SPECIFIC": "FHBRO",
    "LAT": 45.42328,
    "LONG": -75.69582,
    "PC": "K1P 5A5",
    "TYPE": "Commercial",
    "DATE_MOD": 20180123
  },
  {
    "ID": "BH456",
    "NAME": "Coll�ge Larocque-Lafortune",
    "OTHER_NAME": "",
    "ADDRESS": "445 - 447 Sussex Drive",
    "ADDRESS_FR": "445 - 447, prom Sussex",
    "CITY": "Ottawa",
    "PROVINCE": "ON",
    "DESIGNATION": "National",
    "DESIGNATION_SPECIFIC": "FHBRO",
    "LAT": 45.42861,
    "LONG": -75.695988,
    "PC": "K1N 6Z4",
    "TYPE": "Institutional",
    "DATE_MOD": 20180123
  },
  {
    "ID": "BH457",
    "NAME": "Commercial Building",
    "OTHER_NAME": "",
    "ADDRESS": "457 - 459 Sussex Drive",
    "ADDRESS_FR": "457 - 459, prom Sussex",
    "CITY": "Ottawa",
    "PROVINCE": "ON",
    "DESIGNATION": "National",
    "DESIGNATION_SPECIFIC": "FHBRO",
    "LAT": 45.428319,
    "LONG": -75.695563,
    "PC": "K1N 6Z4",
    "TYPE": "Commercial",
    "DATE_MOD": 20180123
  },
  {
    "ID": "BH458",
    "NAME": "Commercial Building",
    "OTHER_NAME": "",
    "ADDRESS": "461 - 465 Sussex Drive",
    "ADDRESS_FR": "461 - 465, prom Sussex",
    "CITY": "Ottawa",
    "PROVINCE": "ON",
    "DESIGNATION": "National",
    "DESIGNATION_SPECIFIC": "FHBRO",
    "LAT": 45.428333,
    "LONG": -75.695451,
    "PC": "K1N 6Z4",
    "TYPE": "Commercial",
    "DATE_MOD": 20180123
  },
  {
    "ID": "BH459",
    "NAME": "Postal Station \"B",
    "OTHER_NAME": "",
    "ADDRESS": "47 - 59 Sparks Street",
    "ADDRESS_FR": "47 - 59, rue Sparks",
    "CITY": "Ottawa",
    "PROVINCE": "ON",
    "DESIGNATION": "National",
    "DESIGNATION_SPECIFIC": "FHBRO",
    "LAT": 45.423517,
    "LONG": -75.696416,
    "PC": "K1A 1J4",
    "TYPE": "Institutional",
    "DATE_MOD": 20180123
  },
  {
    "ID": "BH460",
    "NAME": "Institute Jeanne d'Arc, Revere Hotel",
    "OTHER_NAME": "",
    "ADDRESS": "475 Sussex Drive",
    "ADDRESS_FR": "475, prom Sussex",
    "CITY": "Ottawa",
    "PROVINCE": "ON",
    "DESIGNATION": "National",
    "DESIGNATION_SPECIFIC": "FHBRO",
    "LAT": 45.427888,
    "LONG": -75.69521,
    "PC": "K1N 6Z5",
    "TYPE": "Institutional",
    "DATE_MOD": 20180123
  },
  {
    "ID": "BH461",
    "NAME": "Institut Jeanne d'Arc, Mansfield Building",
    "OTHER_NAME": "",
    "ADDRESS": "481 Sussex Drive",
    "ADDRESS_FR": "481, prom Sussex",
    "CITY": "Ottawa",
    "PROVINCE": "ON",
    "DESIGNATION": "National",
    "DESIGNATION_SPECIFIC": "FHBRO",
    "LAT": 45.427822,
    "LONG": -75.695122,
    "PC": "K1N 6Z5",
    "TYPE": "Institutional",
    "DATE_MOD": 20180123
  },
  {
    "ID": "BH462",
    "NAME": "Institut Jeanne d'Arc, May Building",
    "OTHER_NAME": "Institut Jeanne d'Arc, Sparrow Building",
    "ADDRESS": "489 Sussex Drive",
    "ADDRESS_FR": "489, prom Sussex",
    "CITY": "Ottawa",
    "PROVINCE": "ON",
    "DESIGNATION": "National",
    "DESIGNATION_SPECIFIC": "FHBRO",
    "LAT": 45.427744,
    "LONG": -75.694948,
    "PC": "K1N 6Z5",
    "TYPE": "Institutional",
    "DATE_MOD": 20180123
  },
  {
    "ID": "BH463",
    "NAME": "Institut Jeanne d'Arc, Johnston Building",
    "OTHER_NAME": "",
    "ADDRESS": "493 Sussex Drive",
    "ADDRESS_FR": "493, prom Sussex",
    "CITY": "Ottawa",
    "PROVINCE": "ON",
    "DESIGNATION": "National",
    "DESIGNATION_SPECIFIC": "FHBRO",
    "LAT": 45.427669,
    "LONG": -75.695054,
    "PC": "K1N 6Z5",
    "TYPE": "Institutional",
    "DATE_MOD": 20180123
  },
  {
    "ID": "BH464",
    "NAME": "Stornoway",
    "OTHER_NAME": "",
    "ADDRESS": "541 Acacia Drive",
    "ADDRESS_FR": "540, prom Acacia",
    "CITY": "Ottawa",
    "PROVINCE": "ON",
    "DESIGNATION": "National",
    "DESIGNATION_SPECIFIC": "FHBRO",
    "LAT": 45.45298,
    "LONG": -75.678746,
    "PC": "K1M 0M5",
    "TYPE": "Residential",
    "DATE_MOD": 20180123
  },
  {
    "ID": "BH465",
    "NAME": "EMR - Ore Dressing Lab",
    "OTHER_NAME": "",
    "ADDRESS": "550 Booth Street",
    "ADDRESS_FR": "550, rue Booth",
    "CITY": "Ottawa",
    "PROVINCE": "ON",
    "DESIGNATION": "National",
    "DESIGNATION_SPECIFIC": "FHBRO",
    "LAT": 45.402645,
    "LONG": -75.706665,
    "PC": "K1S",
    "TYPE": "Institutional",
    "DATE_MOD": 20180123
  },
  {
    "ID": "BH466",
    "NAME": "EMR Complex: Ore Dressing Lab",
    "OTHER_NAME": "",
    "ADDRESS": "552 Booth Street",
    "ADDRESS_FR": "552, rue Booth",
    "CITY": "Ottawa",
    "PROVINCE": "ON",
    "DESIGNATION": "National",
    "DESIGNATION_SPECIFIC": "FHBRO",
    "LAT": 45.402535,
    "LONG": -75.706599,
    "PC": "K1S",
    "TYPE": "Institutional",
    "DATE_MOD": 20180123
  },
  {
    "ID": "BH467",
    "NAME": "Chemical Radioactive Ores Building",
    "OTHER_NAME": "",
    "ADDRESS": "555 Booth Street",
    "ADDRESS_FR": "555, rue Booth",
    "CITY": "Ottawa",
    "PROVINCE": "ON",
    "DESIGNATION": "National",
    "DESIGNATION_SPECIFIC": "FHBRO",
    "LAT": 45.402426,
    "LONG": -75.70605,
    "PC": "K1S",
    "TYPE": "Institutional",
    "DATE_MOD": 20180123
  },
  {
    "ID": "BH468",
    "NAME": "Connaught Building",
    "OTHER_NAME": "",
    "ADDRESS": "555 Sussex Drive",
    "ADDRESS_FR": "555, prom Sussex",
    "CITY": "Ottawa",
    "PROVINCE": "ON",
    "DESIGNATION": "National",
    "DESIGNATION_SPECIFIC": "FHBRO",
    "LAT": 45.426575,
    "LONG": -75.694032,
    "PC": "K1N 5S6",
    "TYPE": "Institutional",
    "DATE_MOD": 20180123
  },
  {
    "ID": "BH469",
    "NAME": "EMR Complex: Fuel Testing Lab",
    "OTHER_NAME": "",
    "ADDRESS": "562 Booth Street",
    "ADDRESS_FR": "562, rue Booth",
    "CITY": "Ottawa",
    "PROVINCE": "ON",
    "DESIGNATION": "National",
    "DESIGNATION_SPECIFIC": "FHBRO",
    "LAT": 45.401742,
    "LONG": -75.706745,
    "PC": "K1S",
    "TYPE": "Institutional",
    "DATE_MOD": 20180123
  },
  {
    "ID": "BH470",
    "NAME": "EMR Complex: Physical Metallurgy Labs",
    "OTHER_NAME": "",
    "ADDRESS": "568 Booth Street",
    "ADDRESS_FR": "568, rue Booth",
    "CITY": "Ottawa",
    "PROVINCE": "ON",
    "DESIGNATION": "National",
    "DESIGNATION_SPECIFIC": "FHBRO",
    "LAT": 45.399467,
    "LONG": -75.704882,
    "PC": "K1S",
    "TYPE": "Institutional",
    "DATE_MOD": 20180123
  },
  {
    "ID": "BH471",
    "NAME": "Administration Building",
    "OTHER_NAME": "",
    "ADDRESS": "588 Booth Street",
    "ADDRESS_FR": "588, rue Booth",
    "CITY": "Ottawa",
    "PROVINCE": "ON",
    "DESIGNATION": "National",
    "DESIGNATION_SPECIFIC": "FHBRO",
    "LAT": 45.39953,
    "LONG": -75.705328,
    "PC": "K1S",
    "TYPE": "Institutional",
    "DATE_MOD": 20180123
  },
  {
    "ID": "BH472",
    "NAME": "Geological Surveys of Canada Building",
    "OTHER_NAME": "",
    "ADDRESS": "601 Booth Street",
    "ADDRESS_FR": "601, rue Booth",
    "CITY": "Ottawa",
    "PROVINCE": "ON",
    "DESIGNATION": "National",
    "DESIGNATION_SPECIFIC": "FHBRO",
    "LAT": 45.401885,
    "LONG": -75.705547,
    "PC": "K1A 0E9",
    "TYPE": "Institutional",
    "DATE_MOD": 20180123
  },
  {
    "ID": "BH473",
    "NAME": "Hope Building",
    "OTHER_NAME": "",
    "ADDRESS": "61 - 63 Sparks Street",
    "ADDRESS_FR": "61 - 63, rue Sparks",
    "CITY": "Ottawa",
    "PROVINCE": "ON",
    "DESIGNATION": "National",
    "DESIGNATION_SPECIFIC": "FHBRO",
    "LAT": 45.423428,
    "LONG": -75.696642,
    "PC": "K1P 5A5",
    "TYPE": "Commercial",
    "DATE_MOD": 20180123
  },
  {
    "ID": "BH474",
    "NAME": "Surveys and Mapping Building",
    "OTHER_NAME": "",
    "ADDRESS": "615 Booth Street",
    "ADDRESS_FR": "615, rue Booth",
    "CITY": "Ottawa",
    "PROVINCE": "ON",
    "DESIGNATION": "National",
    "DESIGNATION_SPECIFIC": "FHBRO",
    "LAT": 45.40073,
    "LONG": -75.705027,
    "PC": "K1A 0E9",
    "TYPE": "Institutional",
    "DATE_MOD": 20180123
  },
  {
    "ID": "BH475",
    "NAME": "Fraser School House",
    "OTHER_NAME": "",
    "ADDRESS": "62 John Street",
    "ADDRESS_FR": "62, rue John",
    "CITY": "Ottawa",
    "PROVINCE": "ON",
    "DESIGNATION": "National",
    "DESIGNATION_SPECIFIC": "FHBRO",
    "LAT": 45.442535,
    "LONG": -75.693195,
    "PC": "K1M 1P5",
    "TYPE": "Institutional",
    "DATE_MOD": 20180123
  },
  {
    "ID": "BH476",
    "NAME": "VIP Residence",
    "OTHER_NAME": "",
    "ADDRESS": "7 Rideau Street",
    "ADDRESS_FR": "7, rue Rideau",
    "CITY": "Ottawa",
    "PROVINCE": "ON",
    "DESIGNATION": "National",
    "DESIGNATION_SPECIFIC": "FHBRO",
    "LAT": 45.425294,
    "LONG": -75.69394,
    "PC": "K1N 1K4",
    "TYPE": "Residential",
    "DATE_MOD": 20180123
  },
  {
    "ID": "BH477",
    "NAME": "9 / Brooke Claxton Building",
    "OTHER_NAME": "Former Dept. of Health & Welfare, Administration Building",
    "ADDRESS": "70 De la Colombine Boulevard",
    "ADDRESS_FR": "70, boul De la Colombine",
    "CITY": "Ottawa",
    "PROVINCE": "ON",
    "DESIGNATION": "National",
    "DESIGNATION_SPECIFIC": "FHBRO",
    "LAT": 45.408764,
    "LONG": -75.737358,
    "PC": "K1A 0K9",
    "TYPE": "Institutional",
    "DATE_MOD": 20180123
  },
  {
    "ID": "BH478",
    "NAME": "Vincent Massey Park",
    "OTHER_NAME": "Concession Stand and Shelter; Bus Shelter",
    "ADDRESS": "701 Heron Road",
    "ADDRESS_FR": "701, chemin Heron",
    "CITY": "Ottawa",
    "PROVINCE": "ON",
    "DESIGNATION": "National",
    "DESIGNATION_SPECIFIC": "FHBRO",
    "LAT": 45.376773,
    "LONG": -75.693307,
    "PC": "K1H",
    "TYPE": "Other",
    "DATE_MOD": 20180123
  },
  {
    "ID": "BH479",
    "NAME": "Sir Leonard Tilley Building",
    "OTHER_NAME": "",
    "ADDRESS": "719 Heron Road",
    "ADDRESS_FR": "719, chemin Heron",
    "CITY": "Ottawa",
    "PROVINCE": "ON",
    "DESIGNATION": "National",
    "DESIGNATION_SPECIFIC": "FHBRO",
    "LAT": 45.377653,
    "LONG": -75.690281,
    "PC": "K1H",
    "TYPE": "Institutional",
    "DATE_MOD": 20180123
  },
  {
    "ID": "BH480",
    "NAME": "Saxe Building",
    "OTHER_NAME": "",
    "ADDRESS": "75 Sparks Street",
    "ADDRESS_FR": "75, rue Sparks",
    "CITY": "Ottawa",
    "PROVINCE": "ON",
    "DESIGNATION": "National",
    "DESIGNATION_SPECIFIC": "FHBRO",
    "LAT": 45.423302,
    "LONG": -75.69656,
    "PC": "K1P 5A5",
    "TYPE": "Commercial",
    "DATE_MOD": 20180123
  },
  {
    "ID": "BH481",
    "NAME": "Blackburn Building",
    "OTHER_NAME": "",
    "ADDRESS": "85 Sparks Street",
    "ADDRESS_FR": "85, rue Sparks",
    "CITY": "Ottawa",
    "PROVINCE": "ON",
    "DESIGNATION": "National",
    "DESIGNATION_SPECIFIC": "FHBRO",
    "LAT": 45.423155,
    "LONG": -75.697188,
    "PC": "K1P 5K9",
    "TYPE": "Commercial",
    "DATE_MOD": 20180123
  },
  {
    "ID": "BH482",
    "NAME": "Residence",
    "OTHER_NAME": "",
    "ADDRESS": "9 Rideau Gate",
    "ADDRESS_FR": "9, porte Rideau",
    "CITY": "Ottawa",
    "PROVINCE": "ON",
    "DESIGNATION": "National",
    "DESIGNATION_SPECIFIC": "FHBRO",
    "LAT": 45.444046,
    "LONG": -75.691405,
    "PC": "K1M 2E5",
    "TYPE": "Residential",
    "DATE_MOD": 20180123
  },
  {
    "ID": "BH483",
    "NAME": "Canada's Four Corners Building",
    "OTHER_NAME": "",
    "ADDRESS": "93 Sparks Street",
    "ADDRESS_FR": "93, rue Sparks",
    "CITY": "Ottawa",
    "PROVINCE": "ON",
    "DESIGNATION": "National",
    "DESIGNATION_SPECIFIC": "FHBRO",
    "LAT": 45.422863,
    "LONG": -75.697623,
    "PC": "K1P 5B5",
    "TYPE": "Commercial",
    "DATE_MOD": 20180123
  },
  {
    "ID": "BH484",
    "NAME": "George Sparks House",
    "OTHER_NAME": "",
    "ADDRESS": "936 - 940 N River Road",
    "ADDRESS_FR": "936 - 940, chemin River",
    "CITY": "Ottawa",
    "PROVINCE": "ON",
    "DESIGNATION": "National",
    "DESIGNATION_SPECIFIC": "FHBRO",
    "LAT": 45.428222,
    "LONG": -75.668044,
    "PC": "K1K 3Y8",
    "TYPE": "Residential",
    "DATE_MOD": 20180123
  },
  {
    "ID": "BH485",
    "NAME": "Cartier Square Drill Hall",
    "OTHER_NAME": "",
    "ADDRESS": "2 Queen Elizabeth Driveway",
    "ADDRESS_FR": "Cartier Square",
    "CITY": "Ottawa",
    "PROVINCE": "ON",
    "DESIGNATION": "National",
    "DESIGNATION_SPECIFIC": "FHBRO",
    "LAT": 45.421527,
    "LONG": -75.688834,
    "PC": "K2P 2H9",
    "TYPE": "Institutional",
    "DATE_MOD": 20180123
  },
  {
    "ID": "BH486",
    "NAME": "Refreshment Stand",
    "OTHER_NAME": "",
    "ADDRESS": "Hogs Back",
    "ADDRESS_FR": "Hogs Back",
    "CITY": "Ottawa",
    "PROVINCE": "ON",
    "DESIGNATION": "National",
    "DESIGNATION_SPECIFIC": "FHBRO",
    "LAT": 45.371506,
    "LONG": -75.696048,
    "PC": "",
    "TYPE": "Other",
    "DATE_MOD": 20180123
  },
  {
    "ID": "BH487",
    "NAME": "Former Dominion Bureau of Statistics Building",
    "OTHER_NAME": "Statistics Canada Building",
    "ADDRESS": "100 Tunney�s Pasture Driveway, Building 3",
    "ADDRESS_FR": "av Holland",
    "CITY": "Ottawa",
    "PROVINCE": "ON",
    "DESIGNATION": "National",
    "DESIGNATION_SPECIFIC": "FHBRO",
    "LAT": 45.404922,
    "LONG": -75.735911,
    "PC": "",
    "TYPE": "Institutional",
    "DATE_MOD": 20180123
  },
  {
    "ID": "BH488",
    "NAME": "Former Dept. of Health & Welfare, Food and Drug Laboratory",
    "OTHER_NAME": "Health Protection Building",
    "ADDRESS": "100 Tunney�s Pasture Driveway, Building 7",
    "ADDRESS_FR": "av Holland",
    "CITY": "Ottawa",
    "PROVINCE": "ON",
    "DESIGNATION": "National",
    "DESIGNATION_SPECIFIC": "FHBRO",
    "LAT": 45.407626,
    "LONG": -75.735771,
    "PC": "",
    "TYPE": "Institutional",
    "DATE_MOD": 20180123
  },
  {
    "ID": "BH489",
    "NAME": "Justice Building",
    "OTHER_NAME": "",
    "ADDRESS": "Kent & Wellington Streets",
    "ADDRESS_FR": "rue Kent et Wellington",
    "CITY": "Ottawa",
    "PROVINCE": "ON",
    "DESIGNATION": "National",
    "DESIGNATION_SPECIFIC": "FHBRO",
    "LAT": 45.421504,
    "LONG": -75.703849,
    "PC": "K1A 0J1",
    "TYPE": "Institutional",
    "DATE_MOD": 20180123
  },
  {
    "ID": "BH490",
    "NAME": "Patterson Creek Pavilion",
    "OTHER_NAME": "",
    "ADDRESS": "Linden Terrace",
    "ADDRESS_FR": "Linden Terrace",
    "CITY": "Ottawa",
    "PROVINCE": "ON",
    "DESIGNATION": "National",
    "DESIGNATION_SPECIFIC": "FHBRO",
    "LAT": 45.408103,
    "LONG": -75.682484,
    "PC": "",
    "TYPE": "Other",
    "DATE_MOD": 20180123
  },
  {
    "ID": "BH491",
    "NAME": "Maintenance Building",
    "OTHER_NAME": "",
    "ADDRESS": "Major's Hill Park",
    "ADDRESS_FR": "Parc Major's Hill",
    "CITY": "Ottawa",
    "PROVINCE": "ON",
    "DESIGNATION": "National",
    "DESIGNATION_SPECIFIC": "FHBRO",
    "LAT": 45.428163,
    "LONG": -75.698606,
    "PC": "",
    "TYPE": "Other",
    "DATE_MOD": 20180123
  },
  {
    "ID": "BH492",
    "NAME": "Ottawa Electric Company Steam Plant",
    "OTHER_NAME": "",
    "ADDRESS": "Middle Street",
    "ADDRESS_FR": "rue Middle",
    "CITY": "Ottawa",
    "PROVINCE": "ON",
    "DESIGNATION": "National",
    "DESIGNATION_SPECIFIC": "FHBRO",
    "LAT": 45.421576,
    "LONG": -75.712106,
    "PC": "",
    "TYPE": "Commercial",
    "DATE_MOD": 20180123
  },
  {
    "ID": "BH493",
    "NAME": "Ottawa Hydro Generating Station #12",
    "OTHER_NAME": "",
    "ADDRESS": "Mill Street",
    "ADDRESS_FR": "rue Mill",
    "CITY": "Ottawa",
    "PROVINCE": "ON",
    "DESIGNATION": "National",
    "DESIGNATION_SPECIFIC": "FHBRO",
    "LAT": 45.419246,
    "LONG": -75.713757,
    "PC": "",
    "TYPE": "Industrial",
    "DATE_MOD": 20180123
  },
  {
    "ID": "BH494",
    "NAME": "NRC Campus Bulding",
    "OTHER_NAME": "",
    "ADDRESS": "1200 Montreal Road",
    "ADDRESS_FR": "ch. Montreal",
    "CITY": "Ottawa",
    "PROVINCE": "ON",
    "DESIGNATION": "National",
    "DESIGNATION_SPECIFIC": "FHBRO",
    "LAT": 45.450665,
    "LONG": -75.621096,
    "PC": "K1K 2E1",
    "TYPE": "Institutional",
    "DATE_MOD": 20180123
  },
  {
    "ID": "BH495",
    "NAME": "Rockcliffe Pavilion",
    "OTHER_NAME": "",
    "ADDRESS": "Rockcliffe Parkway",
    "ADDRESS_FR": "prom Rockcliffe",
    "CITY": "Ottawa",
    "PROVINCE": "ON",
    "DESIGNATION": "National",
    "DESIGNATION_SPECIFIC": "FHBRO",
    "LAT": 45.450617,
    "LONG": -75.688505,
    "PC": "",
    "TYPE": "Other",
    "DATE_MOD": 20180123
  },
  {
    "ID": "BH496",
    "NAME": "13 / Central Heating Plant",
    "OTHER_NAME": "",
    "ADDRESS": "Sorrel Street",
    "ADDRESS_FR": "rue Sorrel",
    "CITY": "Ottawa",
    "PROVINCE": "ON",
    "DESIGNATION": "National",
    "DESIGNATION_SPECIFIC": "FHBRO",
    "LAT": 45.404774,
    "LONG": -75.738032,
    "PC": "",
    "TYPE": "Institutional",
    "DATE_MOD": 20180123
  },
  {
    "ID": "BH497",
    "NAME": "Stable Builidng, \"N\" Division",
    "OTHER_NAME": "",
    "ADDRESS": "St. Laurent Blvd & Sandridge Road",
    "ADDRESS_FR": "St. Laurent et Sandridge",
    "CITY": "Ottawa",
    "PROVINCE": "ON",
    "DESIGNATION": "National",
    "DESIGNATION_SPECIFIC": "FHBRO",
    "LAT": 45.45698,
    "LONG": -75.654835,
    "PC": "",
    "TYPE": "Institutional",
    "DATE_MOD": 20180123
  },
  {
    "ID": "BH498",
    "NAME": "Willson Carbide Mill",
    "OTHER_NAME": "",
    "ADDRESS": "Victoria Island",
    "ADDRESS_FR": "l��le Victoria",
    "CITY": "Ottawa",
    "PROVINCE": "ON",
    "DESIGNATION": "National",
    "DESIGNATION_SPECIFIC": "FHBRO",
    "LAT": 45.420425,
    "LONG": -75.71469,
    "PC": "",
    "TYPE": "Industrial",
    "DATE_MOD": 20180123
  },
  {
    "ID": "BH499",
    "NAME": "Office of the Prime Minister and the Privy Council / Bureau du Premier ministre et du Conseil priv�",
    "OTHER_NAME": "formerly / anciennement Langevin Block",
    "ADDRESS": "80 Wellington Street",
    "ADDRESS_FR": "80, rue Wellington",
    "CITY": "Ottawa",
    "PROVINCE": "ON",
    "DESIGNATION": "Local,National",
    "DESIGNATION_SPECIFIC": "PartIV,NHS",
    "LAT": 45.423536,
    "LONG": -75.697088,
    "PC": "K1P 5K9",
    "TYPE": "Institutional",
    "DATE_MOD": 20180123
  },
  {
    "ID": "BH500",
    "NAME": "Overbrook School",
    "OTHER_NAME": "",
    "ADDRESS": "149 King George Street",
    "ADDRESS_FR": "149, rue King George",
    "CITY": "Ottawa",
    "PROVINCE": "ON",
    "DESIGNATION": "Local",
    "DESIGNATION_SPECIFIC": "PartIV",
    "LAT": 45.425673,
    "LONG": -75.658103,
    "PC": "K1K 1V2",
    "TYPE": "Institutional",
    "DATE_MOD": 20180123
  },
  {
    "ID": "BH501",
    "NAME": "St. Anne's Rectory",
    "OTHER_NAME": "",
    "ADDRESS": "17 Myrand Avenue",
    "ADDRESS_FR": "17, av Myrand",
    "CITY": "Ottawa",
    "PROVINCE": "ON",
    "DESIGNATION": "Local",
    "DESIGNATION_SPECIFIC": "PartIV",
    "LAT": 45.434225,
    "LONG": -75.682914,
    "PC": "K1N 5N7",
    "TYPE": "Institutional",
    "DATE_MOD": 20180123
  },
  {
    "ID": "BH502",
    "NAME": "173 Huntmar Drive",
    "OTHER_NAME": "",
    "ADDRESS": "173 Huntmar Drive",
    "ADDRESS_FR": "173, prom Huntmar",
    "CITY": "Ottawa",
    "PROVINCE": "ON",
    "DESIGNATION": "Local",
    "DESIGNATION_SPECIFIC": "PartIV",
    "LAT": 45.292447,
    "LONG": -75.923671,
    "PC": "K2S 1B9",
    "TYPE": "Residential",
    "DATE_MOD": 20180123
  },
  {
    "ID": "BH503",
    "NAME": "Medical Arts Building",
    "OTHER_NAME": "",
    "ADDRESS": "180 Metcalfe Road",
    "ADDRESS_FR": "180, ch Metcalfe",
    "CITY": "Ottawa",
    "PROVINCE": "ON",
    "DESIGNATION": "Local",
    "DESIGNATION_SPECIFIC": "PartIV",
    "LAT": 45.418717,
    "LONG": -75.694118,
    "PC": "K2P 1P5",
    "TYPE": "Institutional",
    "DATE_MOD": 20180123
  },
  {
    "ID": "BH504",
    "NAME": "Kilmorie",
    "OTHER_NAME": "",
    "ADDRESS": "21 Withrow Avenue",
    "ADDRESS_FR": "21, av Withrow",
    "CITY": "Ottawa",
    "PROVINCE": "ON",
    "DESIGNATION": "Local",
    "DESIGNATION_SPECIFIC": "PartIV",
    "LAT": 45.35438,
    "LONG": -75.738883,
    "PC": "K2G 2H7",
    "TYPE": "Residential",
    "DATE_MOD": 20180123
  },
  {
    "ID": "BH505",
    "NAME": "307 Richmond Road",
    "OTHER_NAME": "",
    "ADDRESS": "307 Richmond Road",
    "ADDRESS_FR": "307, ch Richmond",
    "CITY": "Ottawa",
    "PROVINCE": "ON",
    "DESIGNATION": "Local",
    "DESIGNATION_SPECIFIC": "PartIV",
    "LAT": 45.392845,
    "LONG": -75.752482,
    "PC": "K1Z 6X3",
    "TYPE": "Institutional",
    "DATE_MOD": 20180123
  },
  {
    "ID": "BH506",
    "NAME": "Hartin Hotel",
    "OTHER_NAME": "",
    "ADDRESS": "3317 Robertson Road",
    "ADDRESS_FR": "3317, ch Robertson",
    "CITY": "Ottawa",
    "PROVINCE": "ON",
    "DESIGNATION": "Local",
    "DESIGNATION_SPECIFIC": "PartIV",
    "LAT": 45.327512,
    "LONG": -75.820205,
    "PC": "",
    "TYPE": "Commercial",
    "DATE_MOD": 20180123
  },
  {
    "ID": "BH507",
    "NAME": "Lipsett House",
    "OTHER_NAME": "",
    "ADDRESS": "37 Oriole Drive",
    "ADDRESS_FR": "37, prom Oriole",
    "CITY": "Ottawa",
    "PROVINCE": "ON",
    "DESIGNATION": "Local",
    "DESIGNATION_SPECIFIC": "PartIV",
    "LAT": 45.456712,
    "LONG": -75.612796,
    "PC": "K1J 7E8",
    "TYPE": "Residential",
    "DATE_MOD": 20180123
  },
  {
    "ID": "BH508",
    "NAME": "Former Adath Jeshrun Synagogue",
    "OTHER_NAME": "",
    "ADDRESS": "375 King Edward Avenue",
    "ADDRESS_FR": "375, av King Edward",
    "CITY": "Ottawa",
    "PROVINCE": "ON",
    "DESIGNATION": "Local",
    "DESIGNATION_SPECIFIC": "PartIV",
    "LAT": 45.429552,
    "LONG": -75.685921,
    "PC": "K1N 7M5",
    "TYPE": "Institutional",
    "DATE_MOD": 20180123
  },
  {
    "ID": "BH509",
    "NAME": "478 Albert Street",
    "OTHER_NAME": "",
    "ADDRESS": "478 Albert Street",
    "ADDRESS_FR": "478, rue Albert",
    "CITY": "Ottawa",
    "PROVINCE": "ON",
    "DESIGNATION": "Local",
    "DESIGNATION_SPECIFIC": "PartIV",
    "LAT": 45.416678,
    "LONG": -75.707631,
    "PC": "K1R 5B5",
    "TYPE": "Residential",
    "DATE_MOD": 20180123
  },
  {
    "ID": "BH510",
    "NAME": "5897 Fernbank Road",
    "OTHER_NAME": "Flewellyn Jones House",
    "ADDRESS": "5897 Fernbank Road",
    "ADDRESS_FR": "5897, ch Fernbank",
    "CITY": "Ottawa",
    "PROVINCE": "ON",
    "DESIGNATION": "Local",
    "DESIGNATION_SPECIFIC": "PartIV",
    "LAT": 45.257905,
    "LONG": -75.897762,
    "PC": "K2S 1B6",
    "TYPE": "Residential",
    "DATE_MOD": 20180123
  },
  {
    "ID": "BH511",
    "NAME": "Broadview Public School",
    "OTHER_NAME": "",
    "ADDRESS": "590 Broadview Avenue",
    "ADDRESS_FR": "590, av Broadview",
    "CITY": "Ottawa",
    "PROVINCE": "ON",
    "DESIGNATION": "Local",
    "DESIGNATION_SPECIFIC": "PartIV",
    "LAT": 45.383025,
    "LONG": -75.758125,
    "PC": "K2A 2L8",
    "TYPE": "Institutional",
    "DATE_MOD": 20180123
  },
  {
    "ID": "BH512",
    "NAME": "66 Lisgar Street",
    "OTHER_NAME": "",
    "ADDRESS": "66 Lisgar Street",
    "ADDRESS_FR": "66, rue Lisgar",
    "CITY": "Ottawa",
    "PROVINCE": "ON",
    "DESIGNATION": "Local",
    "DESIGNATION_SPECIFIC": "PartIV",
    "LAT": 45.420048,
    "LONG": -75.688995,
    "PC": "K2P 0C1",
    "TYPE": "Residential",
    "DATE_MOD": 20180123
  },
  {
    "ID": "BH513",
    "NAME": "Bayview Yards",
    "OTHER_NAME": "",
    "ADDRESS": "7 Bayview Avenue",
    "ADDRESS_FR": "7, av Bayview",
    "CITY": "Ottawa",
    "PROVINCE": "ON",
    "DESIGNATION": "Local",
    "DESIGNATION_SPECIFIC": "PartIV",
    "LAT": 45.409444,
    "LONG": -75.727908,
    "PC": "K1Y 3B5",
    "TYPE": "Industrial",
    "DATE_MOD": 20180123
  },
  {
    "ID": "BH514",
    "NAME": "Champlain Oil Service Centre",
    "OTHER_NAME": "",
    "ADDRESS": "70 Richmond Road",
    "ADDRESS_FR": "70, ch Richmond",
    "CITY": "Ottawa",
    "PROVINCE": "ON",
    "DESIGNATION": "Local",
    "DESIGNATION_SPECIFIC": "PartIV",
    "LAT": 45.396831,
    "LONG": -75.742376,
    "PC": "K1Z 6V7",
    "TYPE": "Commercial",
    "DATE_MOD": 20180123
  },
  {
    "ID": "BH515",
    "NAME": "Magee House",
    "OTHER_NAME": "",
    "ADDRESS": "78 Lisgar Street",
    "ADDRESS_FR": "78, rue Lisgar",
    "CITY": "Ottawa",
    "PROVINCE": "ON",
    "DESIGNATION": "Local",
    "DESIGNATION_SPECIFIC": "PartIV",
    "LAT": 45.420014,
    "LONG": -75.689182,
    "PC": "K2P 0C1",
    "TYPE": "Residential",
    "DATE_MOD": 20180123
  },
  {
    "ID": "BH516",
    "NAME": "975 Gladstone Avenue",
    "OTHER_NAME": "",
    "ADDRESS": "975 Gladstone Avenue",
    "ADDRESS_FR": "975, av Gladstone",
    "CITY": "Ottawa",
    "PROVINCE": "ON",
    "DESIGNATION": "Local",
    "DESIGNATION_SPECIFIC": "PartIV",
    "LAT": 45.403365,
    "LONG": -75.716479,
    "PC": "K1Y",
    "TYPE": "Industrial",
    "DATE_MOD": 20180123
  },
  {
    "ID": "BH517",
    "NAME": "Macdonald Gardens Park",
    "OTHER_NAME": "",
    "ADDRESS": "99 Cobourg Street",
    "ADDRESS_FR": "99, rue Cobourg",
    "CITY": "Ottawa",
    "PROVINCE": "ON",
    "DESIGNATION": "Local",
    "DESIGNATION_SPECIFIC": "PartIV",
    "LAT": 45.433909,
    "LONG": -75.677551,
    "PC": "K1N",
    "TYPE": "Other",
    "DATE_MOD": 20180123
  }
]